SALE TYPE,SOLD DATE,PROPERTY TYPE,ADDRESS,CITY,STATE OR PROVINCE,ZIP OR POSTAL CODE,PRICE,BEDS,BATHS,LOCATION,SQUARE FEET,LOT SIZE,YEAR BUILT,DAYS ON MARKET,$/SQUARE FEET,HOA/MONTH,STATUS,NEXT OPEN HOUSE START TIME,NEXT OPEN HOUSE END TIME,URL (SEE https://www.redfin.com/buy-a-home/comparative-market-analysis FOR INFO ON PRICING),SOURCE,MLS#,FAVORITE,INTERESTED,LATITUDE,LONGITUDE
MLS Listing,,Condo/Co-op,180 Bautista Ct #78,Oceanside,CA,92057,695000,3,3.0,Oceanside,1553,,1997,1,448,273,Active,,,https://www.redfin.com/CA/Oceanside/180-Bautista-Ct-92057/unit-78/home/3290153,SDMLS,230018147,N,Y,33.2262174,-117.3159667
MLS Listing,,Single Family Residential,2667 Fallsview Rd,San Marcos,CA,92078,1599900,4,3.0,San Marcos,3400,6126,2005,2,471,100,Pre On-Market,,,https://www.redfin.com/CA/San-Marcos/2667-Fallsview-Rd-92078/home/7514600,SDMLS,230018222,N,Y,33.0955106,-117.2111528
MLS Listing,,Single Family Residential,2640 Secret Lake Ln,Fallbrook,CA,92028,1199000,4,3.5,Fallbrook,3382,47916,1990,3,355,105,Active,,,https://www.redfin.com/CA/Fallbrook/2640-Secret-Lake-Ln-92028/home/3121937,SDMLS,230018167,N,Y,33.3448162,-117.1864656
MLS Listing,,Condo/Co-op,8475 Avenida Angulia #4,Spring Valley,CA,91977,439000,2,2.0,Spring Valley,862,145375,1987,3,509,380,Active,,,https://www.redfin.com/CA/Spring-Valley/8475-Avenida-Angulia-91977/unit-4/home/6039754,SDMLS,230018159,N,Y,32.6962473,-117.0148156
MLS Listing,,Single Family Residential,274 Montclair St,Chula Vista,CA,91911,749000,3,2.0,Chula Vista,1274,7100,1959,3,588,,Active,,,https://www.redfin.com/CA/Chula-Vista/274-Montclair-St-91911/home/6188538,SDMLS,230018121,N,Y,32.6213398,-117.0466986
MLS Listing,,Single Family Residential,12368 Fairway Pointe Row,San Diego,CA,92128,2099000,4,3.0,Rancho Bernardo,3687,8908,1985,4,569,270,Active,,,https://www.redfin.com/CA/San-Diego/12368-Fairway-Pointe-Row-92128/home/4256638,SDMLS,230018049,N,Y,33.005186,-117.067226
MLS Listing,,Single Family Residential,655 Gemstone Dr,San Marcos,CA,92078,1295000,5,3.0,San Marcos,2646,,2018,4,489,228,Active,,,https://www.redfin.com/CA/San-Marcos/655-Gemstone-Dr-92078/home/167227676,SDMLS,230018028,N,Y,33.1212936,-117.1674826
MLS Listing,,Single Family Residential,1354 S Maple St,Escondido,CA,92025,649900,3,2.0,South Escondido,1136,5266,1960,4,572,,Active,,,https://www.redfin.com/CA/Escondido/1354-S-Maple-St-92025/home/4017687,SDMLS,230018026,N,Y,33.1094633,-117.0743958
MLS Listing,,Single Family Residential,2054 Cottage Way,Vista,CA,92081,699000,2,2.0,Vista,999,4417,1984,4,700,124,Active,,,https://www.redfin.com/CA/Vista/2054-Cottage-Way-92081/home/3802058,SDMLS,230018017,N,Y,33.1653251,-117.2251928
MLS Listing,,Single Family Residential,5136 Francis St,Oceanside,CA,92057,739000,3,2.0,Oceanside,1210,7447,1986,4,611,,Active,,,https://www.redfin.com/CA/Oceanside/5136-Francis-St-92057/home/3110754,SDMLS,230018015,N,Y,33.2596194,-117.2916988
MLS Listing,,Townhouse,3648 7Th Ave,San Diego,CA,92103,1449000,3,2.5,San Diego,2198,,2018,4,659,387,Active,,,https://www.redfin.com/CA/San-Diego/3648-7th-Ave-92103/home/167587071,SDMLS,230018012,N,Y,32.7443049,-117.1587128
MLS Listing,,Single Family Residential,10345 Rue Chamberry,San Diego,CA,92131,2099000,5,4.0,Scripps Ranch,4089,11063,1982,5,513,152,Active,,,https://www.redfin.com/CA/San-Diego/10345-Rue-Chamberry-92131/home/4975903,SDMLS,230017947,N,Y,32.9044013,-117.0676628
MLS Listing,,Condo/Co-op,1450 Iris Ave #11,Imperial Beach,CA,91932,425000,1,1.0,Imperial Beach,610,,1969,6,697,195,Active,,,https://www.redfin.com/CA/Imperial-Beach/1450-Iris-Ave-91932/unit-11/home/17108472,SDMLS,230017864,N,Y,32.5693396,-117.102502
MLS Listing,,Condo/Co-op,3505 Cameo Dr #69,Oceanside,CA,92056,612500,2,2.0,Oceanside,1008,,1992,6,608,365,Active,,,https://www.redfin.com/CA/Oceanside/3505-Cameo-Dr-92056/unit-69/home/3380269,SDMLS,230017845,N,Y,33.19272,-117.307897
MLS Listing,,Condo/Co-op,3549 Castle Glen Dr #112,San Diego,CA,92123,399900,1,1.0,Serra Mesa,582,186777,1973,10,687,330,Active,,,https://www.redfin.com/CA/San-Diego/3549-Castle-Glen-Dr-92123/unit-112/home/6416964,SDMLS,230017675,N,Y,32.806419967,-117.1302436
MLS Listing,,Townhouse,6282 Via Trato,Carlsbad,CA,92009,815000,3,3.0,Carlsbad South,1292,,2002,10,631,265,Active,,,https://www.redfin.com/CA/Carlsbad/6282-Via-Trato-92009/home/6537299,SDMLS,230017473,N,Y,33.1201384,-117.2334661
MLS Listing,,Condo/Co-op,1965 Avenida Del Mexico #209,San Diego,CA,92154,515000,2,2.0,San Diego,885,,1987,10,582,310,Active,,,https://www.redfin.com/CA/San-Diego/1965-Avenida-del-Mexico-92154/unit-209/home/12159555,SDMLS,230017603,N,Y,32.5832034,-117.0916816
MLS Listing,,Condo/Co-op,5410 La Jolla Blvd Unit A103,La Jolla,CA,92037,1380000,2,2.0,La Jolla,1347,,2005,11,1024,607,Active,,,https://www.redfin.com/CA/La-Jolla/5410-La-Jolla-Blvd-92037/unit-A103/home/6650876,SDMLS,230016808,N,Y,32.8108077,-117.2671064
MLS Listing,,Single Family Residential,548 Lado De Loma Dr,Vista,CA,92083,749900,3,2.0,Vista,1359,8165,1980,11,552,,Active,,,https://www.redfin.com/CA/Vista/548-Lado-de-Loma-Dr-92083/home/3503606,SDMLS,230017529,N,Y,33.1930826,-117.2385608
MLS Listing,,Condo/Co-op,475 N Midway Dr #220,Escondido,CA,92027,419900,2,2.0,North Escondido,964,261543,1979,11,436,306,Active,,,https://www.redfin.com/CA/Escondido/475-N-Midway-Dr-92027/unit-220/home/3973534,SDMLS,230017489,N,Y,33.1390823,-117.0538018
MLS Listing,,Single Family Residential,2154 Coast Ave,San Marcos,CA,92078,1699900,5,4.0,San Marcos,4088,12593,2002,11,416,140,Active,,,https://www.redfin.com/CA/San-Marcos/2154-Coast-Ave-92078/home/3863615,SDMLS,230017478,N,Y,33.1225559,-117.2237935
MLS Listing,,Condo/Co-op,17147 W Bernardo Dr #108,San Diego,CA,92127,550000,2,2.0,Rancho Bernardo,944,,1994,12,583,465,Active,,,https://www.redfin.com/CA/San-Diego/17147-W-Bernardo-Dr-92127/unit-108/home/6616380,SDMLS,230017408,N,Y,33.0274532,-117.0800058
MLS Listing,,Townhouse,7056 Park Mesa Way #49,San Diego,CA,92111,725000,2,1.5,Linda Vista,1041,154800,1980,13,696,385,Active,,,https://www.redfin.com/CA/San-Diego/7056-Park-Mesa-Way-92111/unit-49/home/5207677,SDMLS,230017316,N,Y,32.7978938,-117.1683394
MLS Listing,,Condo/Co-op,2828 Famosa Blvd #207,San Diego,CA,92107,639000,2,2.0,Ocean Beach,896,,1990,17,713,389,Active,,,https://www.redfin.com/CA/San-Diego/2828-Famosa-Blvd-92107/unit-207/home/6422758,SDMLS,230014892,N,Y,32.751385,-117.2296114
MLS Listing,,Condo/Co-op,214 Woodland Pkwy #104,San Marcos,CA,92069,529950,2,2.0,San Marcos,940,,1990,17,564,357,Active,,,https://www.redfin.com/CA/San-Marcos/214-Woodland-Pkwy-92069/unit-104/home/6665316,SDMLS,230017122,N,Y,33.142686,-117.13882
MLS Listing,,Condo/Co-op,3835 Elijah Ct #532,San Diego,CA,92130,885000,2,2.0,Carmel Valley,1193,308849,2002,17,742,385,Active,,,https://www.redfin.com/CA/San-Diego/3835-Elijah-Ct-92130/unit-532/home/6684271,SDMLS,230016919,N,Y,32.9457601,-117.2338134
MLS Listing,,Single Family Residential,1125 Mona Pl,El Cajon,CA,92020,849000,4,2.0,Mount Helix,1770,6200,1967,18,480,,Active,,,https://www.redfin.com/CA/El-Cajon/1125-Mona-Pl-92020/home/5614166,SDMLS,230017021,N,Y,32.780148,-116.9745493
MLS Listing,,Single Family Residential,16825 Archie Moore Rd,Ramona,CA,92065,1950000,4,3.5,Ramona,4155,261360,2019,18,469,,Active,,,https://www.redfin.com/CA/Ramona/16825-Archie-Moore-Rd-92065/home/22232770,SDMLS,230017001,N,Y,33.0209413,-116.9537368
MLS Listing,,Single Family Residential,1453 Esperanza Way,Escondido,CA,92027,865000,3,2.0,North Escondido,1858,8100,1977,23,466,,Active,,,https://www.redfin.com/CA/Escondido/1453-Esperanza-Way-92027/home/3935935,SDMLS,230016047,N,Y,33.1496125,-117.0723518
MLS Listing,,Condo/Co-op,13816 Midland Rd,Poway,CA,92064,590000,2,2.0,Poway,871,83157,1993,23,677,575,Active,,,https://www.redfin.com/CA/Poway/13816-Midland-Rd-92064/home/4792441,SDMLS,230015542,N,Y,32.9642071,-117.0370929
MLS Listing,,Condo/Co-op,4244 5Th Ave,San Diego,CA,92103,850000,2,2.5,San Diego,1480,254831,1973,24,574,455,Active,,,https://www.redfin.com/CA/San-Diego/4244-5th-Ave-92103/home/5291040,SDMLS,230016675,N,Y,32.7546484,-117.1608049
MLS Listing,,Single Family Residential,3410 Filoli Cir,Carlsbad,CA,92009,1775000,3,3.5,Carlsbad South,2028,62462,2010,24,875,150,Active,,,https://www.redfin.com/CA/Carlsbad/3410-Filoli-Cir-92009/home/40094949,SDMLS,230016668,N,Y,33.1064047,-117.2268317
MLS Listing,,Single Family Residential,640 Lado De Loma Dr,Vista,CA,92083,825000,4,3.0,Vista,2334,8300,1940,24,353,,Active,,,https://www.redfin.com/CA/Vista/640-Lado-de-Loma-Dr-92083/home/3503522,SDMLS,230016657,N,Y,33.1915471,-117.2386986
MLS Listing,,Vacant Land,21050 Questhaven Rd,San Marcos,CA,92078,3200000,0,,San Marcos,,1711472,,25,,,Active,,,https://www.redfin.com/CA/San-Marcos/20927-Questhaven-Rd-92078/home/3865666,SDMLS,230016557,N,Y,33.093046,-117.170801
MLS Listing,,Single Family Residential,31223 Pauma Heights Rd,Valley Center,CA,92082,1695000,7,5.0,Valley Center,4216,204296,2022,25,402,,Active,,,https://www.redfin.com/CA/Valley-Center/31223-Pauma-Heights-Rd-92082/home/187043188,SDMLS,230016471,N,Y,33.2849166,-116.9920224
MLS Listing,,Single Family Residential,5291 Vickie Dr,San Diego,CA,92109,1750000,3,2.0,Pacific Beach,1638,7100,1966,31,1068,,Active,,,https://www.redfin.com/CA/San-Diego/5291-Vickie-Dr-92109/home/6416256,SDMLS,230016076,N,Y,32.8129094,-117.2457263
MLS Listing,,Single Family Residential,14260 Fox Run Row,San Diego,CA,92130,2895000,3,3.5,San Diego,3362,,1985,31,861,617,Active,,,https://www.redfin.com/CA/San-Diego/14260-Fox-Run-Row-92130/home/4448523,SDMLS,230016091,N,Y,32.97748,-117.207342
MLS Listing,,Condo/Co-op,6362 Rancho Mission Rd #708,San Diego,CA,92108,489000,2,1.0,Mission Valley,690,,1979,32,709,286,Active,,,https://www.redfin.com/CA/San-Diego/6362-Rancho-Mission-Rd-92108/unit-708/home/5229269,SDMLS,230015847,N,Y,32.788627,-117.1100996
MLS Listing,,Single Family Residential,10236 Avenida De La Cantina,San Diego,CA,92129,1075000,4,2.0,Rancho Penasquitos,1292,9400,1972,32,832,,Active,,,https://www.redfin.com/CA/San-Diego/10236-Avenida-de-la-Cantina-92129/home/4752018,SDMLS,230016053,N,Y,32.9574815,-117.106528
MLS Listing,,Single Family Residential,11430 Westonhill Dr,San Diego,CA,92126,1499000,5,3.0,Mira Mesa,2255,6400,1978,33,665,,Active,,,https://www.redfin.com/CA/San-Diego/11430-Westonhill-Dr-92126/home/4538350,SDMLS,230015948,N,Y,32.9329068,-117.1359081
MLS Listing,,Townhouse,1704 Frangipani Ave,Chula Vista,CA,91913,799000,4,3.5,Chula Vista,2189,1741,2018,38,365,141,Active,,,https://www.redfin.com/CA/Chula-Vista/1704-Frangipani-Ave-91913/home/143239553,SDMLS,230015411,N,Y,32.6123811,-116.9940798
MLS Listing,,Condo/Co-op,1811 E Grand Ave #110,Escondido,CA,92027,395000,2,1.0,East Escondido,905,,1974,38,436,500,Active,,,https://www.redfin.com/CA/Escondido/1811-E-Grand-Ave-92027/unit-110/home/3967927,SDMLS,230015635,N,Y,33.1326645,-117.0526269
MLS Listing,,Single Family Residential,2310 La Paz St,Oceanside,CA,92054,1550000,3,2.0,Oceanside,2460,9947,1970,39,630,,Active,,,https://www.redfin.com/CA/Oceanside/2310-La-Paz-St-92054/home/3383857,SDMLS,230015533,N,Y,33.1863066,-117.338028
MLS Listing,,Single Family Residential,2157 Corte Dorado Espuela,Alpine,CA,91901,1899000,5,4.5,Alpine,5216,190792,2004,45,364,390,Active,,,https://www.redfin.com/CA/Alpine/2157-Corte-Dorado-Espuela-91901/home/5727062,SDMLS,230015180,N,Y,32.8056125,-116.7645154
MLS Listing,,Single Family Residential,7473 Bagdad St,San Diego,CA,92111,1249000,4,2.0,Kearny Mesa,1696,6200,1958,46,736,,Active,,,https://www.redfin.com/CA/San-Diego/7473-Bagdad-St-92111/home/5164903,SDMLS,230015000,N,Y,32.8111608,-117.1611675
MLS Listing,,Condo/Co-op,13832 Midland Rd,Poway,CA,92064,657000,3,2.0,Poway,1216,,1993,52,540,575,Active,,,https://www.redfin.com/CA/Poway/13832-Midland-Rd-92064/home/4793296,SDMLS,230014643,N,Y,32.9644264,-117.0363302
MLS Listing,,Single Family Residential,1227 Via Rancho Pkwy,Escondido,CA,92029,1199000,4,2.0,Southeast Escondido,2275,35283,1972,54,527,,Active,,,https://www.redfin.com/CA/Escondido/1227-Via-Rancho-Pkwy-92029/home/4196087,SDMLS,230014108,N,Y,33.0767105,-117.0961047
MLS Listing,,Single Family Residential,4430 Cape May Ave,San Diego,CA,92107,2795000,6,4.5,Ocean Beach,3669,6375,1990,59,762,,Active,,,https://www.redfin.com/CA/San-Diego/4430-Cape-May-Ave-92107/home/5340516,SDMLS,230014131,N,Y,32.7434671,-117.2387515
MLS Listing,,Condo/Co-op,1514 7Th Ave #903,San Diego,CA,92101,759000,2,2.0,San Diego,1069,,1982,62,710,676,Active,,,https://www.redfin.com/CA/San-Diego/1514-7th-Ave-92101/unit-903/home/5764987,SDMLS,230013868,N,Y,32.7213913,-117.1586898
MLS Listing,,Single Family Residential,2168 San Dieguito Dr,Del Mar,CA,92014,4895000,4,3.5,Del Mar,2977,17790,2009,62,1644,,Active,,,https://www.redfin.com/CA/Del-Mar/2168-San-Dieguito-Dr-92014/home/21909836,SDMLS,230013116,N,Y,32.9681506,-117.2609751
MLS Listing,,Single Family Residential,7459 Orien Ave,La Mesa,CA,91941,950000,4,3.0,La Mesa,2184,9800,1981,63,435,,Active,,,https://www.redfin.com/CA/La-Mesa/7459-Orien-Ave-91941/home/5528245,SDMLS,230013488,N,Y,32.7524154,-117.0349854
MLS Listing,,Single Family Residential,2191 Pamplona Ct,Escondido,CA,92025,1480000,4,3.5,South Escondido,3373,21148,2000,67,439,,Active,,,https://www.redfin.com/CA/Escondido/2191-Pamplona-Ct-92025/home/6582879,SDMLS,230013139,N,Y,33.0984642,-117.0625369
MLS Listing,,Vacant Land,Portola Ave,Spring Valley,CA,91977,80000,0,,La Mesa,,12841,,68,,,Active,,,https://www.redfin.com/CA/Spring-Valley/Portola-Ave-91977/home/178273989,SDMLS,230013427,N,Y,32.719257,-116.988988
MLS Listing,,Condo/Co-op,877 Island Ave #906,San Diego,CA,92101,2299000,3,2.5,San Diego,2330,40120,2002,68,987,909,Active,,,https://www.redfin.com/CA/San-Diego/877-Island-Ave-92101/unit-906/home/6587309,SDMLS,230013366,N,Y,32.7102058,-117.1568674
MLS Listing,,Townhouse,10142 Caminito Zar,Mira Mesa,CA,92126,650000,3,1.5,92126 - Mira Mesa,1264,191793,1975,1,514,440,Active,,,https://www.redfin.com/CA/San-Diego/10142-Caminito-Zar-92126/home/4853885,CRMLS,SW23171407,N,Y,32.902259,-117.122903
MLS Listing,,Single Family Residential,1726 S Mammoth Pl,Escondido,CA,92029,824990,3,2.5,92029 - Escondido,1605,4046,1987,1,514,,Active,September-23-2023 12:00 PM,September-23-2023 04:00 PM,https://www.redfin.com/CA/Escondido/1726-S-Mammoth-Pl-92029/home/4010763,CRMLS,SW23173021,N,Y,33.0992606,-117.1106689
MLS Listing,,Townhouse,14924 Avenida Venusto #119,San Diego,CA,92128,499000,1,1.0,Rancho Bernardo,708,,1988,1,705,372,Active,,,https://www.redfin.com/CA/San-Diego/14924-Avenida-Venusto-92128/unit-119/home/6637529,SDMLS,230018115,N,Y,32.9897761,-117.0694557
MLS Listing,,Condo/Co-op,4474 Brisbane Way #2,Oceanside,CA,92058,675000,4,2.5,Oceanside,1837,43931,2003,1,367,335,Active,,,https://www.redfin.com/CA/Oceanside/4474-Brisbane-Way-92058/unit-2/home/6606570,SDMLS,230017958,N,Y,33.2421765,-117.3230453
MLS Listing,,Condo/Co-op,3845 Groton St #1,San Diego,CA,92110,499000,1,1.0,Point Loma,877,,1964,1,569,545,Active,,,https://www.redfin.com/CA/San-Diego/3845-Groton-St-92110/unit-1/home/5275455,SDMLS,230018200,N,Y,32.7528905,-117.2209675
MLS Listing,,Single Family Residential,967 Erin Dr,El Cajon,CA,92020,899900,4,3.0,El Cajon,2087,5698,1988,1,431,257,Pre On-Market,,,https://www.redfin.com/CA/El-Cajon/967-Erin-Dr-92020/home/5563485,SDMLS,230018261,N,Y,32.8081088,-117.0004873
MLS Listing,,Single Family Residential,4392 Mount Hukee Ave,San Diego,CA,92117,1170000,4,2.0,92117 - Clairemont Mesa,1239,5700,1961,1,944,,Active,,,https://www.redfin.com/CA/San-Diego/4392-Mount-Hukee-Ave-92117/home/4961657,CRMLS,PTP2304542,N,Y,32.8213398,-117.1949629
MLS Listing,,Single Family Residential,738 Brass Lantern,San Marcos,CA,92069,999000,5,3.0,San Marcos,2339,,1979,1,427,,Active,,,https://www.redfin.com/CA/San-Marcos/738-Brass-Lantern-Rd-92069/home/3813905,SDMLS,230018259,N,Y,33.1543485,-117.1472246
MLS Listing,,Single Family Residential,5002 El Acebo,Rancho Santa Fe,CA,92067,5865000,3,4.5,92067 - Rancho Santa Fe,4099,45302,1985,1,1431,117,Active,,,https://www.redfin.com/CA/Rancho-Santa-Fe/5002-El-Acebo-92067/home/4187652,CRMLS,NDP2307282,N,Y,33.0148483,-117.2267862
MLS Listing,,Townhouse,16755 Coyote Bush 89,San Diego,CA,92127,1260000,4,4.0,Rancho Bernardo,2173,,2019,1,580,280,Pre On-Market,,,https://www.redfin.com/CA/San-Diego/16755-Coyote-Bush-Dr-92127/unit-89/home/167684341,SDMLS,230018258,N,Y,33.0199937,-117.1282677
MLS Listing,,Single Family Residential,2469 E Mission Rd,Fallbrook,CA,92028,749000,3,2.0,92028 - Fallbrook,2363,23086,1955,1,317,,Active,,,https://www.redfin.com/CA/Fallbrook/2469-E-Mission-Rd-92028/home/3063627,CRMLS,NDP2307281,N,Y,33.3928181,-117.2102638
MLS Listing,,Single Family Residential,3004 Rana Ct,Carlsbad,CA,92009,1595000,4,2.5,La Costa,2200,6899,1982,1,725,96,Pre On-Market,,,https://www.redfin.com/CA/Carlsbad/3004-Rana-Ct-92009/home/3870788,SDMLS,230018257,N,Y,33.088724,-117.2432309
MLS Listing,,Single Family Residential,,San Diego,CA,92104,658000,2,2.0,North Park,595,1212,1919,1,1106,,Active,,,https://www.redfin.com/CA/San-Diego/Florida-St-92104/home/5306437,SDMLS,230016995,N,Y,32.7488813,-117.1439995
MLS Listing,,Single Family Residential,5232 Don Valdez Dr,Carlsbad,CA,92010,689900,3,2.0,Carlsbad West,1634,,2000,1,422,394,Active,,,https://www.redfin.com/CA/Carlsbad/5232-Don-Valdez-Dr-92010/home/17198250,SDMLS,230018255,N,Y,33.149277,-117.2940407
MLS Listing,,Single Family Residential,915 Crest View Rd,Vista,CA,92081,825000,3,2.0,92081 - Vista,1625,8276,1956,1,508,,Active,,,https://www.redfin.com/CA/Vista/915-Crest-View-Rd-92081/home/3507520,CRMLS,NDP2307279,N,Y,33.1861318,-117.2366705
MLS Listing,,Multi-Family (2-4 Unit),4671-73 Terrace,Kensington,CA,92116,2295000,6,4.0,Kensington,2530,6210,1950,1,907,,Active,,,https://www.redfin.com/CA/KENSINGTON/4671-4673-Terrace-92116/home/187529896,SDMLS,230018254,N,Y,32.76273,-117.108102
MLS Listing,,Single Family Residential,1867 Rocrest Rd,Alpine,CA,91901,1499900,4,3.0,91901 - Alpine,3219,125888,1994,1,466,,Active,,,https://www.redfin.com/CA/Alpine/1867-Rocrest-Rd-91901/home/5114819,CRMLS,PTP2304537,N,Y,32.8276491,-116.796946
MLS Listing,,Single Family Residential,474 Solana Real,Fallbrook,CA,92028,1498747,4,3.0,92028 - Fallbrook,3549,74052,1989,1,422,,Pre On-Market,,,https://www.redfin.com/CA/Fallbrook/474-Solana-Real-92028/home/3104817,CRMLS,NDP2307278,N,Y,33.2995421,-117.2582653
MLS Listing,,Single Family Residential,28091 Moosa Creek Way,Valley Center,CA,92582,822278,4,3.0,92082 - Valley Center,2660,6134,2023,1,309,246,Active,,,https://www.redfin.com/CA/Valley-Center/28091-Moosa-Creek-Way-92082/home/175239271,CRMLS,EV23174084,N,Y,33.218248,-117.03626
MLS Listing,,Single Family Residential,28087 Moosa Creek Way,Valley Center,CA,92582,827181,4,3.0,92082 - Valley Center,2660,5595,2023,1,311,246,Active,,,https://www.redfin.com/CA/Valley-Center/28087-Moosa-Creek-Way-92082/home/175239270,CRMLS,EV23174088,N,Y,33.218106,-117.036263
MLS Listing,,Single Family Residential,28095 Moosa Creek Way,Valley Center,CA,92082,780944,3,2.0,92082 - Valley Center,2080,7156,2023,1,375,246,Active,,,https://www.redfin.com/CA/Valley-Center/28095-Moosa-Creek-Way-92082/home/175239272,CRMLS,EV23174080,N,Y,33.218404,-117.03627
MLS Listing,,Single Family Residential,19328 Japatul Rd,Alpine,CA,91901,999000,5,5.0,91901 - Alpine,3360,1742400,1948,1,297,,Active,,,https://www.redfin.com/CA/Alpine/19328-Japatul-Rd-91901/home/184250390,CRMLS,PTP2304536,N,Y,32.7934059,-116.7324484
MLS Listing,,Mobile/Manufactured Home,3365 Swinging V Rd,Borrego Springs,CA,92004,250000,2,2.0,Borrego Springs,1560,46174,1992,1,160,,Active,,,https://www.redfin.com/CA/Borrego-Springs/3365-Swinging-V-Rd-92004/home/3633741,SDMLS,230018250,N,Y,33.2258336,-116.3715485
MLS Listing,,Multi-Family (2-4 Unit),2044 Madison,University Heights,CA,92116,1495000,4,2.0,University Heights,,,1945,1,,,Active,,,https://www.redfin.com/CA/San-Diego/2044-Madison-Ave-92116/home/5292264,SDMLS,230018249,N,Y,32.7611811,-117.1428001
MLS Listing,,Single Family Residential,354 Canyon Ridge Dr,Bonita,CA,91902,1690000,5,3.0,Bonita,3032,11240,1989,1,557,,Active,,,https://www.redfin.com/CA/Bonita/354-Canyon-Ridge-Dr-91902/home/6083834,SDMLS,230018248,N,Y,32.6604847,-117.0027636
MLS Listing,,Single Family Residential,15955 Running Deer Trl,Poway,CA,92064,4190000,5,5.0,92064 - Poway,6583,402494,2007,1,636,,Active,September-19-2023 01:00 PM,September-19-2023 05:00 PM,https://www.redfin.com/CA/Poway/15955-Running-Deer-Trl-92064/home/7447274,CRMLS,SW23173653,N,Y,32.9934007,-116.9863
MLS Listing,,Mobile/Manufactured Home,12044 Royal Rd #62,El Cajon,CA,92021,59900,2,1.5,92021 - El Cajon,850,,1958,1,70,,Active,,,https://www.redfin.com/CA/El-Cajon/12044-Royal-Rd-92021/unit-62/home/177285241,CRMLS,MC23174018,N,Y,32.8248345,-116.932513
MLS Listing,,Condo/Co-op,3314 Dorado Pl,Carlsbad,CA,92009,1348000,3,2.0,92009 - Carlsbad,1453,367877,1980,2,928,32,Active,,,https://www.redfin.com/CA/Carlsbad/3314-Dorado-Pl-92009/home/3868410,CRMLS,NP23173539,N,Y,33.0837268,-117.2358491
MLS Listing,,Single Family Residential,16434 La Via Feliz,Rancho Santa Fe,CA,92067,5800000,5,5.5,Rancho Santa Fe,4550,,2017,2,1275,1,Active,,,https://www.redfin.com/CA/Rancho-Santa-Fe/16434-La-Via-Feliz-92067/home/4189969,SDMLS,230018247,N,Y,33.0126524,-117.1953558
MLS Listing,,Condo/Co-op,1388 Kettner #1907,San Diego,CA,92101,1249000,2,2.0,Downtown,1161,,2019,2,1076,1085,Active,,,https://www.redfin.com/CA/San-Diego/1388-Kettner-Blvd-92101/unit-1907/home/170146445,SDMLS,230018246,N,Y,32.719544,-117.16958
MLS Listing,,Mobile/Manufactured Home,410 S 1st #44,El Cajon,CA,92019,260000,2,2.0,El Cajon,880,,2023,2,295,,Active,,,https://www.redfin.com/CA/El-Cajon/410-S-1st-St-92019/unit-44/home/187528008,SDMLS,230018242,N,Y,32.7904861,-116.9463082
MLS Listing,,Single Family Residential,3560 Santa Maria,Oceanside,CA,92056,625000,2,1.0,92056 - Oceanside,827,3200,1973,2,756,,Active,,,https://www.redfin.com/CA/Oceanside/3560-Santa-Maria-St-92056/home/3385777,CRMLS,NDP2307171,N,Y,33.1856442,-117.3075041
MLS Listing,,Single Family Residential,2110 69TH St,Lemon Grove,CA,91945,1350000,5,3.0,Lemon Grove,3302,20133,1970,2,409,,Active,,,https://www.redfin.com/CA/Lemon-Grove/2110-69th-St-91945/home/5852286,SDMLS,230018241,N,Y,32.7278398,-117.0495031
MLS Listing,,Single Family Residential,7879-7881 La Mesa Blvd,La Mesa,CA,91942,1400000,3,3.0,La Mesa,2168,,1950,2,646,,Active,,,https://www.redfin.com/CA/La-Mesa/7879-La-Mesa-Blvd-91942/home/5488079,SDMLS,230018240,N,Y,32.7668281,-117.0281244
MLS Listing,,Townhouse,18088 Avenida Alozdra,San Diego,CA,92128,770000,2,2.0,Rancho Bernardo,1328,,1987,2,580,450,Active,,,https://www.redfin.com/CA/San-Diego/18088-Avenida-Alozdra-92128/home/4212804,SDMLS,230018238,N,Y,33.0422437,-117.0505398
MLS Listing,,Single Family Residential,3821 El Camino Real Unit A and B,Carlsbad,CA,92008,1795000,4,3.0,92008 - Carlsbad,2064,23522,1961,2,870,,Active,,,https://www.redfin.com/CA/Carlsbad/3821-El-Camino-Real-92008/unit-A-and-B/home/187527857,CRMLS,OC23173850,N,Y,33.1617444,-117.3201679
MLS Listing,,Single Family Residential,6549 Indian Trail Way,Fallbrook,CA,92028,1800000,3,4.0,92028 - Fallbrook,4540,112820,1983,2,396,,Pre On-Market,September-23-2023 11:00 AM,September-23-2023 04:00 PM,https://www.redfin.com/CA/Fallbrook/6549-Indian-Trail-Way-92028/home/3103610,CRMLS,NP23173420,N,Y,33.2979652,-117.2644197
MLS Listing,,Timeshare,390 San Antonio Ave Unit 13C,San Diego,CA,92106,525000,0,2.0,Point Loma,1275,,1965,2,412,435,Active,,,https://www.redfin.com/CA/San-Diego/390-San-Antonio-Ave-92106/unit-13C/home/178315632,SDMLS,230018236,N,Y,32.7091294,-117.237711
MLS Listing,,Condo/Co-op,1830 Avenida Del Mundo #1608,Coronado,CA,92118,1995000,1,1.5,Coronado Shores,809,,1974,2,2466,818,Active,,,https://www.redfin.com/CA/Coronado/1830-Avenida-del-Mundo-92118/unit-1608/home/5807966,SDMLS,230018235,N,Y,32.6748151,-117.1724748
MLS Listing,,Single Family Residential,13611 Janette Ln,Poway,CA,92064,1095000,3,2.0,Poway,1748,,1981,2,626,,Pre On-Market,,,https://www.redfin.com/CA/Poway/13611-Janette-Ln-92064/home/4721255,SDMLS,230018234,N,Y,32.9639455,-117.03571
MLS Listing,,Multi-Family (2-4 Unit),3422 Hollencrest,San Marcos,CA,92069,535000,2,1.0,92069 - San Marcos,827,3900,1972,2,647,8,Active,,,https://www.redfin.com/CA/San-Marcos/3422-Hollencrest-Rd-92069/home/3829420,CRMLS,NDP2307274,N,Y,33.1553208,-117.1991423
MLS Listing,,Single Family Residential,1972 Galileo Ct,Escondido,CA,92026,1100000,4,3.0,North Escondido,2592,,2021,2,424,232,Active,September-23-2023 01:00 PM,September-23-2023 04:00 PM,https://www.redfin.com/CA/Escondido/1972-Galileo-Ct-92026/home/174461774,SDMLS,230017247,N,Y,33.1602484,-117.1227756
MLS Listing,,Single Family Residential,3871 Boren St,San Diego,CA,92115,799900,2,1.0,92115 - San Diego,1044,12900,1951,2,766,,Active,,,https://www.redfin.com/CA/San-Diego/3871-Boren-St-92115/home/5518262,CRMLS,PTP2304534,N,Y,32.749627,-117.0633452
MLS Listing,,Multi-Family (2-4 Unit),1704 GRAND Ave,San Diego,CA,92109,1795000,4,3.0,San Diego,,,1924,2,,,Pre On-Market,,,https://www.redfin.com/CA/San-Diego/1704-Grand-Ave-92109/home/170590857,SDMLS,230018231,N,Y,32.7986016,-117.2382393
MLS Listing,,Single Family Residential,2977 Rue De Latour,Bonsall,CA,92003,1079539,4,3.0,92003 - Bonsall,2419,4500,2023,2,446,459,Active,,,https://www.redfin.com/CA/Bonsall/2977-Rue-De-Latour-Unknown/home/187527361,CRMLS,PW23173888,N,Y,33.254587,-117.187526
MLS Listing,,Single Family Residential,2971 Rue De Latour,Bonsall,CA,92003,1097259,4,3.5,92003 - Bonsall,2842,4500,2023,2,386,459,Active,,,https://www.redfin.com/CA/Bonsall/2971-Rue-De-Latour-Unknown/home/187527358,CRMLS,PW23173883,N,Y,33.254587,-117.187526
MLS Listing,,Single Family Residential,5929 Del Cerro Blvd,San Diego,CA,92120,2000000,4,3.0,92120 - Del Cerro,2308,30056,1961,2,867,,Pre On-Market,,,https://www.redfin.com/CA/San-Diego/5929-Del-Cerro-Blvd-92120/home/5435760,CRMLS,PTP2304533,N,Y,32.7838205,-117.0719137
MLS Listing,,Single Family Residential,2965 Rue De Latour,Bonsall,CA,92003,975600,3,2.0,92003 - Bonsall,1942,4500,2023,2,502,459,Active,,,https://www.redfin.com/CA/Bonsall/2965-Rue-De-Latour-Unknown/home/187527313,CRMLS,PW23173877,N,Y,33.254587,-117.187526
MLS Listing,,Condo/Co-op,5055 Tranquil Way #103,Oceanside,CA,92057,599000,2,2.5,92057 - Oceanside,1132,81929,2010,2,529,320,Active,,,https://www.redfin.com/CA/Oceanside/5055-Tranquil-Way-92057/unit-103/home/40093541,CRMLS,OC23173875,N,Y,33.2538333,-117.2979413
MLS Listing,,Single Family Residential,7037 La Sena Ave,San Diego,CA,92114,899000,6,3.0,92114 - Encanto,2833,9600,1961,2,317,,Active,,,https://www.redfin.com/CA/San-Diego/7037-La-Sena-Ave-92114/home/6012541,CRMLS,PTP2304532,N,Y,32.7068916,-117.0451584
MLS Listing,,Single Family Residential,12163 Caminito Corriente,Rancho Bernardo (san Diego),CA,92128,1249000,4,3.0,92128 - Rancho Bernardo,2904,109771,1986,2,430,345,Active,,,https://www.redfin.com/CA/San-Diego/12163-Caminito-Corriente-92128/home/4632685,CRMLS,NDP2307271,N,Y,32.9960305,-117.0707911
MLS Listing,,Vacant Land,0 Japatul Rd,Alpine,CA,91901,139000,,,91901 - Alpine,,828511,,2,,,Active,,,https://www.redfin.com/CA/Alpine/Japatul-Rd-91901/home/5729442,CRMLS,PTP2304531,N,Y,32.79133,-116.7348
MLS Listing,,Condo/Co-op,889 Date St #546,San Diego,CA,92101,619000,1,1.5,San Diego,847,36157,2007,2,731,517,Active,,,https://www.redfin.com/CA/San-Diego/889-Date-St-92101/unit-546/home/12160372,SDMLS,230018228,N,Y,32.7227442,-117.1572653
MLS Listing,,Single Family Residential,13356 Racquet Ct,Poway,CA,92064,975000,3,2.0,Poway,1160,5801,1976,2,841,,Active,,,https://www.redfin.com/CA/Poway/13356-Racquet-Ct-92064/home/6275751,SDMLS,230018227,N,Y,32.9578317,-117.0216591
MLS Listing,,Condo/Co-op,3139 E Club Circle #8,Borrego Springs,CA,92004,138000,2,1.0,92004 - Borrego Springs,864,,1965,2,160,500,Active,,,https://www.redfin.com/CA/Borrego-Springs/3139-W-Club-Cir-92004/home/3637072,CRMLS,NDP2307270,N,Y,33.232612,-116.357377
MLS Listing,,Single Family Residential,1845 Olive St,Ramona,CA,92065,825000,2,2.0,92065 - Ramona,1432,47480,1946,2,576,,Pre On-Market,,,https://www.redfin.com/CA/Ramona/1845-Olive-St-92065/home/4280905,CRMLS,SW23173299,N,Y,33.0505679,-116.8913678
MLS Listing,,Mobile/Manufactured Home,2003 Bayview Heights Dr #217,San Diego,CA,92105,130000,2,2.0,92105 - East San Diego,1368,,1970,2,95,,Active,,,https://www.redfin.com/CA/San-Diego/2003-Bayview-Heights-Dr-92105/unit-217/home/187527200,CRMLS,PTP2304528,N,Y,32.728328,-117.0753234
MLS Listing,,Single Family Residential,2585 Indigo Dr,El Cajon,CA,92019,1347000,5,3.0,Rancho San Diego,2917,,1994,2,462,355,Active,,,https://www.redfin.com/CA/El-Cajon/2585-Indigo-Dr-92019/home/5715361,SDMLS,230017887,N,Y,32.7641653,-116.9037556
MLS Listing,,Single Family Residential,25570 highway Hwy,Santa Ysabel,CA,92070,2999000,6,6.5,92070 - Santa Ysabel,7000,3593700,1989,2,428,,Active,,,https://www.redfin.com/CA/Santa-Ysabel/25570-California-79-92070/home/179320440,CRMLS,PTP2304529,N,Y,33.1759434,-116.6918646
MLS Listing,,Single Family Residential,348 El Loro,Chula Vista,CA,91911,750000,4,2.0,Chula Vista,1465,,1965,2,512,,Active,,,https://www.redfin.com/CA/Chula-Vista/348-El-Loro-St-91911/home/6121455,SDMLS,230018225,N,Y,32.6053252,-117.0678007
MLS Listing,,Single Family Residential,1104 S Escondido Blvd,Escondido,CA,92025,650000,2,2.0,Southwest Escondido,1108,7696,1940,2,587,,Active,,,https://www.redfin.com/CA/Escondido/1104-S-Escondido-Blvd-92025/home/4015901,SDMLS,230018224,N,Y,33.1110734,-117.0772706
MLS Listing,,Vacant Land,12664 Cobblestone Creek Rd,Poway,CA,92064,1800000,,,92064 - Poway,,251776,,2,,,Active,,,https://www.redfin.com/CA/Poway/12664-Cobblestone-Creek-Rd-92064/home/18970222,CRMLS,SW23171328,N,Y,32.947044,-117.069106
MLS Listing,,Single Family Residential,335 Whispering Brook Dr,Vista,CA,92083,850000,4,2.0,92083 - Vista,1707,9615,1987,2,498,,Active,,,https://www.redfin.com/CA/Vista/335-Whispering-Brook-Dr-92083/home/3300424,CRMLS,NDP2307269,N,Y,33.2242459,-117.251927
MLS Listing,,Single Family Residential,219 E 6th Ave,Escondido,CA,92025,699000,2,2.0,92025 - Escondido,1096,6732,1891,2,638,,Active,,,https://www.redfin.com/CA/Escondido/219-E-6th-Ave-92025/home/142940102,CRMLS,PTP2304527,N,Y,33.1178505,-117.0762548
MLS Listing,,Mobile/Manufactured Home,6494 Friendly Pl,Carlsbad,CA,92011,937000,2,2.0,92011 - Carlsbad,1012,,1990,2,926,311,Active,,,https://www.redfin.com/CA/Carlsbad/6494-Friendly-Pl-92011/home/17196694,CRMLS,NP23172616,N,Y,33.118791,-117.3248802
MLS Listing,,Single Family Residential,2277 Dunstan St,Oceanside,CA,92054,1325000,3,2.5,92054 - Oceanside,1728,19200,1989,2,767,,Active,,,https://www.redfin.com/CA/Oceanside/2277-Dunstan-St-92054/home/3214803,CRMLS,NDP2307268,N,Y,33.1945888,-117.3482701
MLS Listing,,Condo/Co-op,1269 Aguirre Dr,Chula Vista,CA,91910,575000,2,2.0,91910 - Chula Vista,1025,,1999,2,561,234,Active,,,https://www.redfin.com/CA/Chula-Vista/1269-Aguirre-Dr-91910/home/6204327,CRMLS,PTP2304526,N,Y,32.629629,-117.004688
MLS Listing,,Single Family Residential,2311 DiFoss,Lemon Grove,CA,91945,595000,4,2.0,Lemon Grove,1660,,1955,2,358,,Pre On-Market,,,https://www.redfin.com/CA/Lemon-Grove/2311-Di-Foss-St-91945/home/5559946,SDMLS,230018219,N,Y,32.7304839,-117.0250674
MLS Listing,,Single Family Residential,539 Donax Ave,Imperial Beach,CA,91932,850000,3,2.5,Imperial Beach,1549,6600,1947,2,549,,Active,,,https://www.redfin.com/CA/Imperial-Beach/539-Donax-Ave-91932/home/6141663,SDMLS,230018218,N,Y,32.5824021,-117.1214283
MLS Listing,,Single Family Residential,3240 Trumbull St,San Diego,CA,92106,2799000,5,2.0,Point Loma,2584,,1937,2,1083,,Active,,,https://www.redfin.com/CA/San-Diego/3240-Trumbull-St-92106/home/5739301,SDMLS,230018217,N,Y,32.7228055,-117.2349332
MLS Listing,,Townhouse,2742 Luciernaga St,Carlsbad,CA,92009,875000,2,2.0,92009 - Carlsbad,1380,11328,1980,2,634,,Active,,,https://www.redfin.com/CA/Carlsbad/2742-Luciernaga-St-92009/home/3755413,CRMLS,ND23173751,N,Y,33.107561,-117.2452014
MLS Listing,,Mobile/Manufactured Home,2130 Sunset Dr #3,Vista,CA,92083,219900,2,2.0,Vista,1440,2500,1975,2,153,,Active,,,https://www.redfin.com/CA/Vista/2130-Sunset-Dr-92081/unit-3/home/28449455,SDMLS,230018216,N,Y,33.1825448,-117.2813977
MLS Listing,,Condo/Co-op,4605 Los Alamos Way Unit C,Oceanside,CA,92057,640000,3,2.5,92057 - Oceanside,1366,59834,1995,2,469,375,Active,,,https://www.redfin.com/CA/Oceanside/4605-Los-Alamos-Way-92057/unit-C/home/3349546,CRMLS,OC23172898,N,Y,33.2246444,-117.2958546
MLS Listing,,Townhouse,3055 Corte Trabuco,Carlsbad,CA,92009,765000,3,2.5,92009 - Carlsbad,1350,234449,1986,2,567,495,Active,,,https://www.redfin.com/CA/Carlsbad/3055-Corte-Trabuco-92009/home/3861365,CRMLS,SW23164904,N,Y,33.1121875,-117.2357984
MLS Listing,,Single Family Residential,1946 Cloverdale Rd,Escondido,CA,92027,1250000,4,2.0,92027 - Escondido,2340,100623,2001,2,534,,Active,,,https://www.redfin.com/CA/Escondido/1946-Cloverdale-Rd-92027/home/4045364,CRMLS,NDP2306685,N,Y,33.112133,-117.0176855
MLS Listing,,Single Family Residential,5416 Taft Ave,La Jolla,CA,92037,2495000,3,2.0,92037 - La Jolla,1568,4015,1951,2,1591,,Active,,,https://www.redfin.com/CA/La-Jolla/5416-Taft-Ave-92037/home/4938166,CRMLS,NDP2307267,N,Y,32.8126518,-117.2618903
MLS Listing,,Single Family Residential,1066 Memory Ln,Escondodo,CA,92026,799995,3,2.0,North Escondido,1755,,1975,2,456,,Active,,,https://www.redfin.com/CA/Escondido/1066-Memory-Ln-92026/home/3880518,SDMLS,230017930,N,Y,33.1551065,-117.1082254
MLS Listing,,Single Family Residential,930 Gardena Rd,Encinitas,CA,92024,1699000,3,2.5,Encinitas,1850,4221,1990,2,918,,Active,,,https://www.redfin.com/CA/Encinitas/930-Gardena-Rd-92024/home/4119854,SDMLS,230018070,N,Y,33.0401904,-117.2795293
MLS Listing,,Condo/Co-op,4222 Menlo Ave #9,San Diego,CA,92115,425000,2,2.0,San Diego,800,,1992,2,531,350,Active,,,https://www.redfin.com/CA/San-Diego/4222-Menlo-Ave-92115/unit-9/home/6655301,SDMLS,230018213,N,Y,32.7536352,-117.0946924
MLS Listing,,Townhouse,6435 Bell Bluff Ave,San Diego,CA,92119,539000,2,1.0,San Carlos,880,,1972,2,613,335,Active,,,https://www.redfin.com/CA/San-Diego/6435-Bell-Bluff-Ave-92119/home/5408886,SDMLS,230018215,N,Y,32.816645,-117.05716
MLS Listing,,Condo/Co-op,4060 Huerfano Ave #315,San Diego,CA,92117,550000,2,2.0,Clairemont,878,219099,1972,3,626,529,Active,,,https://www.redfin.com/CA/San-Diego/4060-Huerfano-Ave-92117/unit-315/home/6256223,SDMLS,230018211,N,Y,32.8147506,-117.2174402
MLS Listing,,Single Family Residential,3443 Trophy Dr,La Mesa,CA,91941,749900,4,2.0,La Mesa,1743,,1952,3,430,,Active,,,https://www.redfin.com/CA/La-Mesa/3443-Trophy-Dr-91941/home/5639500,SDMLS,230018210,N,Y,32.7453835,-117.0166168
MLS Listing,,Single Family Residential,566 Goulburn Ct,El Cajon,CA,92020,999000,3,2.0,92020 - El Cajon,1912,10018,1977,3,522,116,Pre On-Market,,,https://www.redfin.com/CA/El-Cajon/566-Goulburn-Ct-92020/home/5594027,CRMLS,PTP2304524,N,Y,32.8017888,-116.9842421
MLS Listing,,Single Family Residential,1565 Hawk View Dr,Encinitas,CA,92024,1350000,3,2.0,92024 - Encinitas,1541,5912,1988,3,876,69,Pre On-Market,,,https://www.redfin.com/CA/Encinitas/1565-Hawk-View-Dr-92024/home/4070604,CRMLS,NDP2307265,N,Y,33.0771301,-117.283018
MLS Listing,,Single Family Residential,3911 HIAWATHA,San Diego,CA,92117,849000,3,1.0,Clairemont,1168,6300,1955,3,727,,Active,,,https://www.redfin.com/CA/San-Diego/3911-Hiawatha-Way-92117/home/5148397,SDMLS,230018207,N,Y,32.8196477,-117.2046634
MLS Listing,,Single Family Residential,7554 Lake Ree,San Diego,CA,92119,1310000,4,2.5,92119 - San Carlos,2467,9700,1968,3,531,,Pre On-Market,,,https://www.redfin.com/CA/San-Diego/7554-Lake-Ree-Ave-92119/home/6453711,CRMLS,NDP2307264,N,Y,32.7945559,-117.0352962
MLS Listing,,Single Family Residential,15255 Molly Anne Ct,Valley Center,CA,92082,1500000,5,3.5,Valley Center,3728,,2017,3,402,267,Pre On-Market,,,https://www.redfin.com/CA/Valley-Center/15255-Molly-Anne-Ct-92082/home/28891758,SDMLS,230018206,N,Y,33.2246046,-116.9851042
MLS Listing,,Condo/Co-op,1240 India St #1800,San Diego,CA,92101,1299900,3,2.5,Downtown,1337,,2003,3,972,689,Active,,,https://www.redfin.com/CA/San-Diego/1240-India-St-92101/unit-1800/home/171981201,SDMLS,230018205,N,Y,32.7181524,-117.1685616
MLS Listing,,Condo/Co-op,3012 Kellogg St,San Diego,CA,92106,995000,2,2.0,92106 - Point Loma,1509,7462,1976,3,659,475,Active,,,https://www.redfin.com/CA/San-Diego/3012-Kellogg-St-92106/home/5747467,CRMLS,PTP2304523,N,Y,32.7088819,-117.2392393
MLS Listing,,Single Family Residential,5331 Old Dairy Ct,Bonita,CA,91902,1549000,7,4.0,91902 - Bonita,3167,47045,1974,3,489,,Active,,,https://www.redfin.com/CA/Bonita/5331-Old-Dairy-Ct-91902/home/6078397,CRMLS,PTP2304522,N,Y,32.6690563,-117.0156163
MLS Listing,,Condo/Co-op,6333 College Grove Way #12106,San Diego,CA,92115,495000,3,2.0,92115 - San Diego,1024,207402,1973,3,483,437,Pre On-Market,,,https://www.redfin.com/CA/San-Diego/6333-College-Grove-Way-92115/unit-12106/home/6672571,CRMLS,PTP2304521,N,Y,32.7366697,-117.0577326
MLS Listing,,Single Family Residential,28929 Manzanita Trl,Pine Valley,CA,91962,624900,3,2.0,Pine Valley,1774,,1980,3,352,,Active,,,https://www.redfin.com/CA/Pine-Valley/28929-Manzanita-Trl-91962/home/5120931,SDMLS,230018203,N,Y,32.8193796,-116.5307331
MLS Listing,,Single Family Residential,1649 Paraiso,Spring Valley,CA,91977,860000,4,3.0,Spring Valley,2143,6150,2023,3,401,,Active,,,https://www.redfin.com/CA/Spring-Valley/1649-Paraiso-Ave-91977/home/22793862,SDMLS,230018202,N,Y,32.7214077,-116.9958803
MLS Listing,,Single Family Residential,10921 Del Rio Rd,Spring Valley,CA,91978,955000,4,2.0,91978 - Spring Valley,1779,12700,1977,3,537,,Active,,,https://www.redfin.com/CA/Spring-Valley/10921-Del-Rio-Rd-91978/home/5680794,CRMLS,PTP2304520,N,Y,32.7420751,-116.9611153
MLS Listing,,Single Family Residential,9524 Podell Ave,San Diego,CA,92123,1049000,4,2.5,Serra Mesa,2016,,1965,3,520,,Active,,,https://www.redfin.com/CA/San-Diego/9524-Podell-Ave-92123/home/5215438,SDMLS,230018201,N,Y,32.790361,-117.1185414
MLS Listing,,Single Family Residential,3325 Ogalala Ave,San Diego,CA,92117,849000,3,1.0,Clairemont,1236,6600,1954,3,687,,Active,,,https://www.redfin.com/CA/San-Diego/3325-Ogalala-Ave-92117/home/4947682,SDMLS,230018197,N,Y,32.8320463,-117.213001
MLS Listing,,Single Family Residential,9532 Coolwater Way,Santee,CA,92071,1075000,3,2.0,92071 - Santee,2210,6898,2017,3,486,100,Active,,,https://www.redfin.com/CA/Santee/9532-Coolwater-Way-92071/home/144731838,CRMLS,PTP2304518,N,Y,32.8507746,-116.9663165
MLS Listing,,Single Family Residential,6065 Cervantes Ave,San Diego,CA,92114,725000,4,2.0,92114 - Encanto,1400,5616,1987,3,518,,Pre On-Market,,,https://www.redfin.com/CA/San-Diego/6065-Cervantes-Ave-92114/home/5888214,CRMLS,PTP2304519,N,Y,32.6977235,-117.0676628
MLS Listing,,Single Family Residential,2214 IMOGENE Ave,San Diego,CA,92154,749995,3,1.0,San Diego,1293,6500,1959,3,580,,Active,,,https://www.redfin.com/CA/San-Diego/2214-Imogene-Ave-92154/home/6175103,SDMLS,230018196,N,Y,32.5722433,-117.0859587
MLS Listing,,Single Family Residential,6243 Camino Corto,San Diego,CA,92120,1398888,4,2.0,Del Cerro,1595,8100,1970,3,877,,Active,September-18-2023 04:00 PM,September-18-2023 07:00 PM,https://www.redfin.com/CA/San-Diego/6243-Camino-Corto-92120/home/6244137,SDMLS,230018195,N,Y,32.7977973,-117.060619
MLS Listing,,Townhouse,600 Sheffield Ct #56,Chula Vista,CA,91910,699000,4,2.5,91910 - Chula Vista,1632,2249,1972,3,428,265,Active,,,https://www.redfin.com/CA/Chula-Vista/600-Sheffield-Ct-91910/unit-56/home/6070705,CRMLS,PTP2304517,N,Y,32.6376373,-117.0552095
MLS Listing,,Single Family Residential,6137 Tooley St,San Diego,CA,92114,899950,3,2.0,San Diego,1442,,1960,3,624,,Pre On-Market,,,https://www.redfin.com/CA/San-Diego/6137-Tooley-St-92114/home/5847174,SDMLS,230018194,N,Y,32.7243166,-117.0655481
MLS Listing,,Condo/Co-op,1223 Sunrise Vw #102,San Marcos,CA,92078,765000,3,3.0,92078 - San Marcos,1501,,2023,3,510,356,Active,,,https://www.redfin.com/CA/San-Marcos/1223-Sunrise-Vw-92078/unit-102/home/187524090,CRMLS,NDP2307261,N,Y,33.1280005,-117.1298257
MLS Listing,,Single Family Residential,3662 Liggett Dr,San Diego,CA,92106,3999000,3,3.5,Point Loma,3294,19700,1956,3,1214,,Active,,,https://www.redfin.com/CA/San-Diego/3662-Liggett-Dr-92106/home/5732257,SDMLS,230018192,N,Y,32.7312556,-117.2369757
MLS Listing,,Single Family Residential,20 Pine Ct,Coronado,CA,92118,5999000,6,4.5,Coronado Village,3457,8803,1990,3,1735,,Active,,,https://www.redfin.com/CA/Coronado/20-Pine-Ct-92118/home/5795154,SDMLS,230018190,N,Y,32.6873518,-117.1883034
MLS Listing,,Townhouse,2211 S Cordon Gln #802,Escondido,CA,92025,614900,2,2.5,South Escondido,1102,,2023,3,558,301,Active,,,https://www.redfin.com/CA/Escondido/2211-S-Cordon-GLN-92025/unit-802/home/187524027,SDMLS,230018191,N,Y,33.0971587846374,-117.070526753998
MLS Listing,,Condo/Co-op,700 W E St #508,San Diego,CA,92101,768000,2,1.5,San Diego,1355,51965,2007,3,567,1474,Active,,,https://www.redfin.com/CA/San-Diego/700-W-E-St-92101/unit-508/home/12159289,SDMLS,230018188,N,Y,32.7151009,-117.1694651
MLS Listing,,Single Family Residential,542 Shadow Hills Dr,San Marcos,CA,92069,830000,4,2.0,92069 - San Marcos,1479,11231,1979,3,561,91,Active,,,https://www.redfin.com/CA/San-Marcos/542-Shadow-Hills-Dr-92069/home/3918998,CRMLS,NDP2307260,N,Y,33.1464696,-117.1296561
MLS Listing,,Single Family Residential,1130 Elm Ave,Chula Vista,CA,91911,780000,4,2.0,91911 - Chula Vista,1750,5738,1997,3,446,,Active,,,https://www.redfin.com/CA/Chula-Vista/1130-Elm-Ave-91911/home/21901291,CRMLS,PTP2304515,N,Y,32.6140107,-117.0638471
MLS Listing,,Multi-Family (2-4 Unit),535 12Th St,Ramona,CA,92065,750000,2,2.0,92065 - Ramona,1800,11325,1957,3,417,,Active,,,https://www.redfin.com/CA/Ramona/535-12th-St-92065/home/4292866,CRMLS,NDP2307259,N,Y,33.0374893,-116.8705357
MLS Listing,,Single Family Residential,2038 Walnut St,Ramona,CA,92065,775000,3,2.0,Ramona,1656,105850,1989,3,468,,Active,,,https://www.redfin.com/CA/Ramona/2038-Walnut-St-92065/home/4282417,SDMLS,230018185,N,Y,33.0425063,-116.8932197
MLS Listing,,Single Family Residential,5179 Saddlery Sq,San Diego,CA,92130,2499000,3,4.5,92130 - Carmel Valley,3197,360676,1985,3,782,617,Active,,,https://www.redfin.com/CA/San-Diego/5179-Saddlery-Sq-92130/home/4449884,CRMLS,PTP2304513,N,Y,32.9750869,-117.2087901
MLS Listing,,Condo/Co-op,16655 Bernardo Oaks Dr,San Diego,CA,92128,599000,2,1.0,92128 - Rancho Bernardo,962,,1965,3,623,465,Active,,,https://www.redfin.com/CA/San-Diego/16655-Bernardo-Oaks-Dr-92128/home/4246389,CRMLS,NDP2307256,N,Y,33.0155596,-117.0644453
MLS Listing,,Single Family Residential,1680 Baja Vista Dr,Fallbrook,CA,92028,979000,4,3.0,92028 - Fallbrook,2515,46609,1991,3,389,,Active,,,https://www.redfin.com/CA/Fallbrook/1680-Baja-Vista-Dr-92028/home/3117549,CRMLS,NDP2307254,N,Y,33.323736,-117.2226672
MLS Listing,,Condo/Co-op,11152 Caminito Vista Pacifica,San Diego,CA,92131,899999,2,2.0,Scripps Ranch,1538,478899,1988,3,585,645,Active,,,https://www.redfin.com/CA/San-Diego/11152-Caminito-Vista-Pacifica-92131/home/4815693,SDMLS,230018183,N,Y,32.9137018,-117.0935371
MLS Listing,,Condo/Co-op,823 Beachfront Dr Unit B,Solana Beach,CA,92075,2449000,2,2.0,92075 - Solana Beach,1210,,1972,3,2024,550,Active,,,https://www.redfin.com/CA/Solana-Beach/823-Beachfront-Dr-92075/unit-B/home/4369165,CRMLS,NDP2307255,N,Y,32.9805671,-117.2715737
MLS Listing,,Single Family Residential,113 Solace Ct,Encinitas,CA,92024,1789000,4,2.0,Encinitas,1830,6200,1973,3,978,,Active,,,https://www.redfin.com/CA/Encinitas/113-Solace-Ct-92024/home/6390518,SDMLS,230018180,N,Y,33.0462381,-117.2518795
MLS Listing,,Single Family Residential,1212 Las Nubes Ct,San Marcos,CA,92078,1449000,3,2.0,Lake San Marcos,1911,7952,1990,3,758,,Active,,,https://www.redfin.com/CA/San-Marcos/1212-Las-Nubes-Ct-92078/home/3861672,SDMLS,230018179,N,Y,33.1192976,-117.1950664
MLS Listing,,Single Family Residential,1130 Boiling Springs Tract,Mount Laguna,CA,91948,159000,2,1.0,91948 - Mount Laguna,900,,1947,3,177,18,Active,,,https://www.redfin.com/CA/Mt-Laguna/1130-Boiling-Springs-Rd-91948/home/160546557,CRMLS,PTP2304511,N,Y,32.87238,-116.4184691
MLS Listing,,Condo/Co-op,8378 New Salem St #19,Mira Mesa,CA,92126,475000,2,2.0,92126 - Mira Mesa,912,184087,1984,3,521,325,Active,,,https://www.redfin.com/CA/San-Diego/8378-New-Salem-St-92126/unit-19/home/4571655,CRMLS,PTP2304510,N,Y,32.9162262,-117.1431576
MLS Listing,,Townhouse,6202 Friars #306,San Diego,CA,92108,365000,0,1.0,Mission Valley,432,,1972,3,845,301,Active,,,https://www.redfin.com/CA/San-Diego/6202-Friars-Rd-92108/unit-306/home/5246160,SDMLS,230018177,N,Y,32.7664425,-117.1821237
MLS Listing,,Single Family Residential,1242 Marjorie Pl,Escondido,CA,92027,725000,4,2.0,92027 - Escondido,1399,6098,1972,3,518,,Pre On-Market,,,https://www.redfin.com/CA/Escondido/1242-Marjorie-Pl-92027/home/3931064,CRMLS,NDP2307253,N,Y,33.1439149,-117.074773
MLS Listing,,Single Family Residential,545 Hilbert Dr,Fallbrook,CA,92028,949000,2,2.0,92028 - Fallbrook,1808,55321,1987,3,525,,Active,,,https://www.redfin.com/CA/Fallbrook/545-Hilbert-Dr-92028/home/3053034,CRMLS,ND23173446,N,Y,33.3978662,-117.2464382
MLS Listing,,Townhouse,903 N Fig St Unit C,Escondido,CA,92026,399999,2,1.0,92026 - Escondido,1008,1068,1972,3,397,340,Pre On-Market,September-24-2023 01:00 PM,September-24-2023 04:00 PM,https://www.redfin.com/CA/Escondido/903-N-Fig-St-92026/unit-C/home/3955496,CRMLS,SW23173448,N,Y,33.1346152,-117.0787477
MLS Listing,,Single Family Residential,13362 Benchley Rd,San Diego,CA,92130,1750000,4,3.0,Carmel Valley,2103,5195,1987,3,832,38,Active,,,https://www.redfin.com/CA/San-Diego/13362-Benchley-Rd-92130/home/4461109,SDMLS,230018176,N,Y,32.9612536,-117.2298792
MLS Listing,,Vacant Land,5390 Acorn Patch,Julian,CA,92036,195000,0,,Julian,,217800,,3,,,Active,,,https://www.redfin.com/CA/Julian/5390-Acorn-Patch-Rd-92036/home/4349956,SDMLS,230018175,N,Y,33.0226129,-116.6081308
MLS Listing,,Single Family Residential,3770 Clinton St,San Diego,CA,92113,724900,4,3.0,Logan Heights,1396,3775,1922,3,519,,Active,,,https://www.redfin.com/CA/San-Diego/3770-Clinton-St-92113/home/5866010,SDMLS,230018174,N,Y,32.704653,-117.1132158
MLS Listing,,Single Family Residential,2909 Reche Rd Unit 14,Fallbrook,CA,92028,289000,3,2.0,92028 - Fallbrook,1244,4838,2007,3,232,,Pre On-Market,,,https://www.redfin.com/CA/Fallbrook/2909-Reche-Rd-92028/unit-14/home/187523160,CRMLS,SW23172390,N,Y,33.3606183,-117.2010702
MLS Listing,,Single Family Residential,439 Merlot Ave,San Marcos,CA,92069,875000,4,2.5,92069 - San Marcos,1878,,2003,3,466,180,Pre On-Market,,,https://www.redfin.com/CA/San-Marcos/439-Merlot-Ave-92069/home/6477891,CRMLS,NDP2307252,N,Y,33.1528153,-117.1553123
MLS Listing,,Single Family Residential,3317 Niblick Dr,La Mesa,CA,91941,739000,4,2.0,La Mesa,1464,7000,1952,3,505,,Active,,,https://www.redfin.com/CA/La-Mesa/3317-Niblick-Dr-91941/home/5661716,SDMLS,230018172,N,Y,32.7422608,-117.0128973
MLS Listing,,Townhouse,10126 Carefree Dr,Santee,CA,92071,479900,2,1.0,Santee,945,111524,1973,3,508,400,Active,,,https://www.redfin.com/CA/Santee/10126-Carefree-Dr-92071/home/5029764,SDMLS,230017291,N,Y,32.8584586,-116.9749424
MLS Listing,,Single Family Residential,4961 E Mountain View Dr,San Diego,CA,92116,1888000,4,1.0,92116 - Normal Heights,1080,19235,1924,3,1748,,Active,,,https://www.redfin.com/CA/San-Diego/4961-E-Mountain-View-Dr-92116/home/5267732,CRMLS,ND23170009,N,Y,32.7683015,-117.1161943
MLS Listing,,Single Family Residential,1238 Pepper Dr,El Cajon,CA,92021,1000000,4,2.0,92021 - El Cajon,2112,13427,1970,3,473,,Active,,,https://www.redfin.com/CA/El-Cajon/1238-Pepper-Dr-92021/home/5063645,CRMLS,PTP2304508,N,Y,32.8215778,-116.9376055
MLS Listing,,Single Family Residential,1516 Avenida Ladera,El Cajon,CA,92020,1195000,4,2.5,92020 - El Cajon,2331,15800,1971,3,513,,Pre On-Market,,,https://www.redfin.com/CA/El-Cajon/1516-Avenida-Ladera-92020/home/5565966,CRMLS,PTP2304505,N,Y,32.8168938,-116.9865529
MLS Listing,,Single Family Residential,9151 Prospect Ave,Santee,CA,92071,575000,4,2.0,92071 - Santee,1168,5833,1972,3,492,,Active,,,https://www.redfin.com/CA/Santee/9151-Prospect-Ave-92071/home/5056980,CRMLS,PTP2304507,N,Y,32.8335858,-116.9990006
MLS Listing,,Single Family Residential,512 S Nevada St,Oceanside,CA,92054,1195000,3,2.0,92054 - Oceanside,1281,5227,1934,3,933,,Pre On-Market,,,https://www.redfin.com/CA/Oceanside/512-S-Nevada-St-92054/home/3203689,CRMLS,NDP2307251,N,Y,33.1919289,-117.3722178
MLS Listing,,Condo/Co-op,1264 E Madison Ave Unit C,El Cajon,CA,92021,435000,2,2.0,92021 - El Cajon,1088,218671,1965,3,400,450,Active,,,https://www.redfin.com/CA/El-Cajon/1264-E-Madison-Ave-92021/unit-C/home/5600657,CRMLS,PTP2304506,N,Y,32.800499,-116.9378393
MLS Listing,,Single Family Residential,6411 Glenroy St,San Diego,CA,92120,835000,3,1.0,San Diego,1096,5000,1957,3,762,,Active,,,https://www.redfin.com/CA/San-Diego/6411-Glenroy-St-92120/home/5430719,SDMLS,230018170,N,Y,32.7900267,-117.0842617
MLS Listing,,Townhouse,17367 Caminito Masada,San Diego,CA,92127,675000,2,1.5,Rancho Bernardo,1104,,1973,3,611,390,Active,,,https://www.redfin.com/CA/San-Diego/17367-Caminito-Masada-92127/home/4227451,SDMLS,230018169,N,Y,33.029539,-117.085451
MLS Listing,,Single Family Residential,9580 W Lilac Rd,Escondido,CA,92026,965000,3,3.0,92026 - Escondido,2188,314503,1969,3,441,,Active,,,https://www.redfin.com/CA/Escondido/9580-W-Lilac-Rd-92026/home/3139263,CRMLS,SW23173273,N,Y,33.2953612,-117.1230973
MLS Listing,,Townhouse,1160 Corral Gln,Escondido,CA,92026,560000,2,2.0,North Escondido,1036,2989,1985,3,541,215,Active,,,https://www.redfin.com/CA/Escondido/1160-Corral-Gln-92026/home/3947633,SDMLS,230018168,N,Y,33.1327655,-117.1037994
MLS Listing,,Condo/Co-op,3940 Gresham #253,San Diego,CA,92109,1400000,2,2.0,Pacific Beach,1625,,1974,3,862,1100,Active,,,https://www.redfin.com/CA/San-Diego/3940-Gresham-St-92109/unit-253/home/5177963,SDMLS,230017974,N,Y,32.7909714,-117.2423503
MLS Listing,,Single Family Residential,7231 Encelia Dr,La Jolla,CA,92037,4495000,3,3.5,92037 - La Jolla,2930,16839,1953,3,1534,,Active,,,https://www.redfin.com/CA/La-Jolla/7231-Encelia-Dr-92037/home/4921189,CRMLS,NDP2307142,N,Y,32.8404451,-117.2575494
MLS Listing,,Condo/Co-op,10166 Carefree Dr,Santee,CA,92071,479000,2,1.0,92071 - Santee,896,111525,1973,3,535,330,Pre On-Market,,,https://www.redfin.com/CA/Santee/10166-Carefree-Dr-92071/home/5029744,CRMLS,SW23172635,N,Y,32.8585141,-116.9739514
MLS Listing,,Single Family Residential,200 Visayan St,National City,CA,91950,714900,4,2.5,91950 - National City,1549,1975,2009,3,462,62,Active,,,https://www.redfin.com/CA/National-City/200-Visayan-St-91950/home/22644316,CRMLS,PTP2302617,N,Y,32.686963,-117.0976278
MLS Listing,,Multi-Family (2-4 Unit),6927-29 Mohawk St,San Diego,CA,92115,850000,4,2.0,92115 - San Diego,1650,7475,1950,3,515,,Active,,,https://www.redfin.com/CA/San-Diego/6927-Mohawk-St-92115/home/5475755,CRMLS,PTP2304504,N,Y,32.7695746,-117.0486296
MLS Listing,,Single Family Residential,3713 Hillview Way,Oceanside,CA,92056,1199000,4,2.5,92056 - Oceanside,2844,6300,1991,3,422,120,Active,,,https://www.redfin.com/CA/Oceanside/3713-Hillview-Way-92056/home/3451337,CRMLS,NDP2307249,N,Y,33.1723328,-117.2695176
MLS Listing,,Condo/Co-op,7735 Saranac Pl #57,La Mesa,CA,91942,599000,2,2.0,La Mesa,1120,233222,1981,3,535,340,Active,,,https://www.redfin.com/CA/La-Mesa/7735-Saranac-Pl-91942/unit-57/home/5487450,SDMLS,230018164,N,Y,32.770743,-117.031404
MLS Listing,,Vacant Land,7687 Hillside Dr,La Jolla,CA,92037,4800000,0,,La Jolla,,16528,,3,,,Active,,,https://www.redfin.com/CA/La-Jolla/7687-Hillside-Dr-92037/home/4920508,SDMLS,230018163,N,Y,32.846299,-117.2590931
MLS Listing,,Condo/Co-op,791 Brookstone Rd #201,Chula Vista,CA,91913,515000,2,2.0,Chula Vista,1045,,1990,3,493,400,Active,,,https://www.redfin.com/CA/Chula-Vista/791-Brookstone-Rd-91913/unit-201/home/6090919,SDMLS,230018160,N,Y,32.6517745,-116.9765269
MLS Listing,,Condo/Co-op,721 9Th Ave #4,San Diego,CA,92101,819900,2,2.0,Downtown,1010,,1999,3,812,305,Active,,,https://www.redfin.com/CA/San-Diego/721-9th-Ave-92101/unit-4/home/7538902,SDMLS,230018158,N,Y,32.7128043,-117.1563003
MLS Listing,,Single Family Residential,2931 Fruitland Dr,Vista,CA,92084,1350000,4,3.0,92084 - Vista,2784,23958,1990,3,485,,Active,,,https://www.redfin.com/CA/Vista/2931-Fruitland-Dr-92084/home/3462308,CRMLS,NDP2307248,N,Y,33.2488013,-117.2268474
MLS Listing,,Single Family Residential,7579 Lake Ree Ave,San Diego,CA,92119,975000,3,2.5,San Diego,2059,8500,1968,3,474,,Active,,,https://www.redfin.com/CA/San-Diego/7579-Lake-Ree-Ave-92119/home/6247279,SDMLS,230018157,N,Y,32.794132,-117.0348364
MLS Listing,,Single Family Residential,1390 Hermes Ave,Encinitas,CA,92024,2100000,3,2.0,92024 - Encinitas,1906,7772,2001,3,1102,,Active,,,https://www.redfin.com/CA/Encinitas/1390-Hermes-Ave-92024/home/4064481,CRMLS,NDP2307245,N,Y,33.0723779,-117.303041
MLS Listing,,Condo/Co-op,4262 Wilson Ave #17,San Diego,CA,92104,395000,1,1.0,San Diego,540,12630,1983,3,731,243,Active,,,https://www.redfin.com/CA/San-Diego/4262-Wilson-Ave-92104/unit-17/home/5317809,SDMLS,230018156,N,Y,32.7545145,-117.1171653
MLS Listing,,Single Family Residential,2899 College Blvd,Oceanside,CA,92056,649000,4,2.0,92056 - Oceanside,1320,7400,1972,3,492,,Active,,,https://www.redfin.com/CA/Oceanside/2899-College-Blvd-92056/home/3405619,CRMLS,NDP2307246,N,Y,33.1941646,-117.2941785
MLS Listing,,Single Family Residential,5571 Bergen,San Diego,CA,92117,1099000,4,2.0,Clairemont,1580,5900,1975,3,696,,Active,,,https://www.redfin.com/CA/San-Diego/5571-Bergen-St-92117/home/4929785,SDMLS,230018155,N,Y,32.8350201,-117.1727275
MLS Listing,,Single Family Residential,31012 Saddleback Rd,Valley Center,CA,92082,799000,3,2.0,Valley Center,1844,108900,1979,3,433,,Active,,,https://www.redfin.com/CA/Valley-Center/31012-Saddleback-Rd-92082/home/3151164,SDMLS,230018154,N,Y,33.27804,-117.000774
MLS Listing,,Single Family Residential,906 Leonard Ave,Oceanside,CA,92054,1875000,3,3.0,92054 - Oceanside,2017,5400,1955,3,930,,Pre On-Market,,,https://www.redfin.com/CA/Oceanside/906-Leonard-Ave-92054/home/3212907,CRMLS,NDP2307244,N,Y,33.1891514,-117.3697038
MLS Listing,,Single Family Residential,11410 Eucalyptus Hills Dr,Lakeside,CA,92040,749500,3,2.5,Lakeside,1491,46609,1980,3,503,,Active,,,https://www.redfin.com/CA/Lakeside/11410-Eucalyptus-Hills-Dr-92040/home/5003205,SDMLS,230017968,N,Y,32.8815685,-116.9500341
MLS Listing,,Single Family Residential,9452 Larrabee,San Diego,CA,92123,969810,3,3.0,San Diego,1600,,1960,3,606,,Active,,,https://www.redfin.com/CA/San-Diego/9452-Larrabee-Ave-92123/home/5214501,SDMLS,230018153,N,Y,32.7924531,-117.1204154
MLS Listing,,Multi-Family (2-4 Unit),4777 35th St,San Diego,CA,92116,2200000,6,3.0,Normal Heights,2424,,2023,3,908,,Active,,,https://www.redfin.com/CA/San-Diego/4777-35th-St-92116/home/5269190,SDMLS,230018152,N,Y,32.7648827,-117.1170306
MLS Listing,,Condo/Co-op,376 Center St #304,Chula Vista,CA,91910,515000,2,2.0,91910 - Chula Vista,1231,,1981,3,418,540,Active,,,https://www.redfin.com/CA/Chula-Vista/376-Center-St-91910/unit-304/home/5952528,CRMLS,NDP2307243,N,Y,32.6393984,-117.0822356
MLS Listing,,Single Family Residential,1006 Joplin Dr,El Cajon,CA,92021,615000,3,1.0,92021 - El Cajon,948,6600,1959,3,649,,Active,,,https://www.redfin.com/CA/El-Cajon/1006-Joplin-Dr-92021/home/5064555,CRMLS,PTP2304503,N,Y,32.8185527,-116.9478648
MLS Listing,,Single Family Residential,1732 Avenida Regina,San Marcos,CA,92069,1150000,4,2.5,92069 - San Marcos,2639,6436,2014,3,436,83,Active,,,https://www.redfin.com/CA/San-Marcos/1732-Avenida-Regina-92069/home/22636749,CRMLS,PTP2304501,N,Y,33.1605466,-117.1964339
MLS Listing,,Single Family Residential,2210 Dalecrest Ln,Spring Valley,CA,91977,699000,3,2.0,91977 - Spring Valley,1296,3049,1976,3,539,259,Active,,,https://www.redfin.com/CA/Spring-Valley/2210-Dalecrest-Ln-91977/home/5677526,CRMLS,PTP2304502,N,Y,32.7286467,-116.9818981
MLS Listing,,Single Family Residential,10919 Bali Ln,San Diego,CA,92126,900000,3,2.0,Mira Mesa,1136,6000,1972,3,792,,Active,,,https://www.redfin.com/CA/San-Diego/10919-Bali-Ln-92126/home/4568729,SDMLS,230018151,N,Y,32.9169782,-117.1579665
MLS Listing,,Single Family Residential,13492 Sawtooth Rd,San Diego,CA,92129,1548000,3,2.5,Rancho Penasquitos,2164,10000,1979,3,715,,Active,,,https://www.redfin.com/CA/San-Diego/13492-Sawtooth-Rd-92129/home/4759650,SDMLS,230018150,N,Y,32.9631319,-117.1261306
MLS Listing,,Townhouse,8760 Concourse Ct,San Diego,CA,92123,799000,2,2.5,Kearny Mesa,1267,19694,2004,3,631,252,Active,,,https://www.redfin.com/CA/San-Diego/8760-Concourse-Ct-92123/home/7490351,SDMLS,230018149,N,Y,32.8250527,-117.1387689
MLS Listing,,Condo/Co-op,1508 Circa Del Lago Unit B109,San Marcos,CA,92078,215000,1,1.0,92078 - San Marcos,660,50696,1988,3,326,2322,Active,,,https://www.redfin.com/CA/San-Marcos/1508-Circa-Del-Lago-92078/unit-B109/home/3845285,CRMLS,NDP2307240,N,Y,33.1238477,-117.2104959
MLS Listing,,Single Family Residential,6181 Decanture Ct,San Diego,CA,92120,1199000,5,3.0,San Diego,2316,,1972,3,518,,Active,,,https://www.redfin.com/CA/San-Diego/6181-Decanture-Ct-92120/home/5408687,SDMLS,230018146,N,Y,32.8068588,-117.0569971
MLS Listing,,Single Family Residential,2665 Wadsworth St,Carlsbad,CA,92010,2399999,5,5.5,Carlsbad East,3897,,2017,3,616,320,Active,,,https://www.redfin.com/CA/Carlsbad/2665-Wadsworth-St-92010/home/113850833,SDMLS,230018145,N,Y,33.1548364,-117.3018012
MLS Listing,,Single Family Residential,2557 Angell Ave,San Diego,CA,92122,1600000,3,2.5,University City,1896,12700,1968,3,844,,Active,,,https://www.redfin.com/CA/San-Diego/2557-Angell-Ave-92122/home/4887681,SDMLS,230018144,N,Y,32.8497657,-117.2305682
MLS Listing,,Condo/Co-op,1388 Kettner Blvd #1301,San Diego,CA,92101,1995000,2,2.0,Downtown,1459,,2019,3,1367,1140,Active,,,https://www.redfin.com/CA/San-Diego/1388-Kettner-Blvd-92101/unit-1301/home/170146388,SDMLS,230018143,N,Y,32.719544,-117.16958
MLS Listing,,Single Family Residential,168 Kenyatta Dr,San Diego,CA,92114,795000,4,2.0,San Diego,1436,8480,1977,3,554,,Active,,,https://www.redfin.com/CA/San-Diego/168-Kenyatta-Dr-92114/home/5885462,SDMLS,230018142,N,Y,32.7020017,-117.0691344
MLS Listing,,Condo/Co-op,1951 Strata St,Chula Vista,CA,91915,840000,4,3.0,91915 - Chula Vista,2037,,2020,3,412,296,Active,,,https://www.redfin.com/CA/Chula-Vista/1951-Strata-St-91915/home/175416686,CRMLS,PTP2304500,N,Y,32.6146,-116.965576
MLS Listing,,Single Family Residential,9149 Single Oak Dr,Lakeside,CA,92040,749999,3,2.0,92040 - Lakeside,1820,16577,1976,3,412,,Pre On-Market,,,https://www.redfin.com/CA/Lakeside/9149-Single-Oak-Dr-92040/home/5085319,CRMLS,NDP2307239,N,Y,32.8440692,-116.9212377
MLS Listing,,Single Family Residential,550 Echo Ln,San Marcos,CA,92078,1498000,4,3.0,San Marcos,2971,6361,2003,3,504,150,Active,,,https://www.redfin.com/CA/San-Marcos/550-Echo-Ln-92078/home/6537254,SDMLS,230018141,N,Y,33.1242859,-117.1710149
MLS Listing,,Condo/Co-op,1596 Caminito Aguar,San Marcos,CA,92078,899000,3,2.0,92078 - San Marcos,1339,34028,1990,3,671,515,Active,,,https://www.redfin.com/CA/San-Marcos/1596-Caminito-Aguar-92078/home/3859874,CRMLS,OC23172963,N,Y,33.119938,-117.2105383
MLS Listing,,Single Family Residential,1324 Helix View Dr,El Cajon,CA,92020,891000,4,3.0,El Cajon,2570,6538,1975,3,347,,Active,,,https://www.redfin.com/CA/El-Cajon/1324-Helix-View-Dr-92020/home/5606553,SDMLS,230018140,N,Y,32.7816278,-116.9804132
MLS Listing,,Single Family Residential,8158 Lazy River Rd,San Diego,CA,92127,2395000,3,3.5,Rancho Santa Fe,3396,,2013,3,705,605,Active,,,https://www.redfin.com/CA/San-Diego/8158-Lazy-River-Rd-92127/home/52344368,SDMLS,230018139,N,Y,33.032778,-117.152906
MLS Listing,,Townhouse,1727 Long Ridge St,Chula Vista,CA,91913,875000,4,3.0,Chula Vista,1987,3272,2001,3,440,89,Active,,,https://www.redfin.com/CA/Chula-Vista/1727-Long-Ridge-St-91913/home/6213442,SDMLS,230018137,N,Y,32.63513,-116.9863531
MLS Listing,,Single Family Residential,4082 Ingalls St,San Diego,CA,92103,1425000,4,2.0,Mission Hills,1618,5164,1940,3,881,,Pre On-Market,,,https://www.redfin.com/CA/San-Diego/4082-Ingalls-St-92103/home/5284497,SDMLS,230018138,N,Y,32.7514509,-117.1752879
MLS Listing,,Condo/Co-op,5715 Baltimore Dr #7,La Mesa,CA,91942,705000,3,2.5,91942 - La Mesa,1385,110206,1979,3,509,325,Pre On-Market,,,https://www.redfin.com/CA/La-Mesa/5715-Baltimore-Dr-91942/unit-7/home/5445571,CRMLS,PTP2304499,N,Y,32.7855876,-117.0340087
MLS Listing,,Single Family Residential,15527 Artesian Ridge Rd,San Diego,CA,92127,6195000,5,5.5,92127 - Rancho Bernardo,4846,43560,2017,3,1278,344,Pre On-Market,,,https://www.redfin.com/CA/San-Diego/15527-Artesian-Ridge-Rd-92127/home/22419906,CRMLS,NDP2307235,N,Y,33.0177154,-117.151808
MLS Listing,,Townhouse,621 D St #111,Chula Vista,CA,91910,449900,2,1.5,Chula Vista,1015,21171,1993,3,443,363,Active,,,https://www.redfin.com/CA/Chula-Vista/621-D-St-91910/unit-111/home/5941437,SDMLS,230018136,N,Y,32.6447759,-117.0959963
MLS Listing,,Condo/Co-op,5266 Caminito Aruba,San Diego,CA,92124,799000,3,2.0,Tierrasanta,1594,,1978,3,501,383,Active,,,https://www.redfin.com/CA/San-Diego/5266-Caminito-Aruba-92124/home/4983569,SDMLS,230018135,N,Y,32.8265466,-117.1157081
MLS Listing,,Single Family Residential,4906 Park Dr,Carlsbad,CA,92008,1190000,3,2.0,Carlsbad East,1222,27007,1972,3,974,,Active,,,https://www.redfin.com/CA/Carlsbad/4906-Park-Dr-92008/home/3698571,SDMLS,230018134,N,Y,33.1478945,-117.3102042
MLS Listing,,Townhouse,10 Jamaica Village Rd,Coronado,CA,92118,1700000,3,2.5,Coronado Cays,1826,,1971,3,931,390,Active,,,https://www.redfin.com/CA/Coronado/10-Jamaica-Village-Rd-92118/home/6112532,SDMLS,230017856,N,Y,32.6278808,-117.1373325
MLS Listing,,Mobile/Manufactured Home,1120 E Mission Rd #37,Fallbrook,CA,92028,149900,2,2.0,92028 - Fallbrook,1440,570636,1970,3,104,,Active,,,https://www.redfin.com/CA/Fallbrook/1120-E-Mission-Rd-92028/unit-37/home/40404927,CRMLS,NDP2307234,N,Y,33.3884381,-117.2389727
MLS Listing,,Single Family Residential,3605 S Barcelona St,Spring Valley,CA,91977,799000,3,1.0,91977 - Spring Valley,1234,8510,1944,3,647,,Active,,,https://www.redfin.com/CA/Spring-Valley/3605-S-Barcelona-St-91977/home/5648293,CRMLS,PTP2304498,N,Y,32.7451155,-116.9816696
MLS Listing,,Single Family Residential,5175 Catoctin Dr,San Diego,CA,92115,835000,3,2.0,San Diego,1302,5200,1980,3,641,,Active,,,https://www.redfin.com/CA/San-Diego/5175-Catoctin-Dr-92115/home/5471204,SDMLS,230018133,N,Y,32.7726737,-117.0577831
MLS Listing,,Single Family Residential,5270 Trojan,San Diego,CA,92115,679900,3,3.0,San Diego,998,5400,1948,3,681,,Active,,,https://www.redfin.com/CA/San-Diego/5270-Trojan-Ave-92115/home/5509271,SDMLS,230018132,N,Y,32.7550611,-117.0821203
MLS Listing,,Single Family Residential,459 Sunridge Dr,Oceanside,CA,92056,850000,4,2.0,Oceanside,1846,16734,1991,3,460,,Active,,,https://www.redfin.com/CA/Oceanside/459-Sunridge-Dr-92056/home/6333072,SDMLS,230018131,N,Y,33.2283418,-117.2672451
MLS Listing,,Single Family Residential,4511 Miramonte,La Mesa,CA,91941,1600000,6,3.0,La Mesa,3150,,1956,3,508,,Active,,,https://www.redfin.com/CA/La-Mesa/4511-Miramonte-St-91941/home/5624631,SDMLS,230018130,N,Y,32.7616272,-117.0114207
MLS Listing,,Single Family Residential,8546 Snow White Dr,El Cajon,CA,92021,648000,3,2.0,92021 - El Cajon,1112,227607,1986,3,583,142,Active,,,https://www.redfin.com/CA/El-Cajon/8546-Snow-White-Dr-92021/home/5098203,CRMLS,TR23172070,N,Y,32.8316609,-116.902912
MLS Listing,,Townhouse,1031 Plover Way,Oceanside,CA,92057,609950,2,2.0,92057 - Oceanside,1092,1829,1981,3,559,375,Active,,,https://www.redfin.com/CA/Oceanside/1031-Plover-Way-92057/home/3315337,CRMLS,IG23173110,N,Y,33.224403,-117.298122
MLS Listing,,Mobile/Manufactured Home,1930 W San Marcos Blvd #330,San Marcos,CA,92078,479000,2,2.0,92078 - San Marcos,1743,3999,1979,3,275,,Active,,,https://www.redfin.com/CA/San-Marcos/1930-W-San-Marcos-Blvd-92078/unit-330/home/44559579,CRMLS,NDP2307233,N,Y,33.1386429,-117.2148047
MLS Listing,,Single Family Residential,3422 Whittier St,San Diego,CA,92106,1874900,4,4.0,Point Loma,2550,5000,1948,3,735,,Active,,,https://www.redfin.com/CA/San-Diego/3422-Whittier-St-92106/home/5354077,SDMLS,230018129,N,Y,32.7380512,-117.2244238
MLS Listing,,Single Family Residential,28561 Highway 94,Campo,CA,91906,589000,3,2.0,91906 - Campo,1698,553212,1996,3,347,,Active,,,https://www.redfin.com/CA/Campo/28561-Highway-94-91906/home/6223994,CRMLS,PTP2304497,N,Y,32.5947794,-116.5352955
MLS Listing,,Single Family Residential,1644 LA MESA Ave,Spring Valley,CA,91977,799900,3,2.5,Spring Valley,2139,5844,1990,3,374,,Active,,,https://www.redfin.com/CA/Spring-Valley/1644-La-Mesa-Ave-91977/home/6006249,SDMLS,230018128,N,Y,32.7213653,-116.9875469
MLS Listing,,Multi-Family (2-4 Unit),5077-81 Madison Ave,San Diego,CA,92115,1395000,8,4.0,Talmadge,3480,,1940,3,401,,Active,,,https://www.redfin.com/CA/San-Diego/5077-Madison-Ave-92115/home/5467507,SDMLS,230018127,N,Y,32.7607785,-117.0850416
MLS Listing,,Single Family Residential,7902 Beaver Lake Dr,San Diego,CA,92119,919000,3,2.0,San Carlos,1012,6700,1960,3,908,,Active,,,https://www.redfin.com/CA/San-Diego/7902-Beaver-Lake-Dr-92119/home/5419610,SDMLS,230018126,N,Y,32.8004012,-117.0257802
MLS Listing,,Vacant Land,Newell,Lincoln Acres,CA,91950,225000,0,,National City,,15682,,3,,,Active,,,https://www.redfin.com/CA/National-City/Newell-St-91950/home/187515979,SDMLS,230018125,N,Y,32.666263777125,-117.081378856483
MLS Listing,,Single Family Residential,236 N 3rd St,El Cajon,CA,92019,699000,3,2.0,El Cajon,1372,,1960,3,509,,Active,,,https://www.redfin.com/CA/El-Cajon/236-N-3rd-St-92019/home/5697001,SDMLS,230018124,N,Y,32.7970284,-116.9272181
MLS Listing,,Single Family Residential,8308 Top O The Morning Way Lot 47,San Diego,CA,92127,3650000,5,5.5,San Diego,5020,26136,2005,3,727,650,Active,,,https://www.redfin.com/CA/San-Diego/8308-Top-O-the-Morning-Way-92127/unit-47/home/187515135,SDMLS,230018123,N,Y,33.027814,-117.1550137
MLS Listing,,Townhouse,4243 Loma Riviera Ln,San Diego,CA,92110,795000,3,1.5,92110 - Old Town Sd,1400,228277,1965,3,568,514,Active,,,https://www.redfin.com/CA/San-Diego/4243-Loma-Riviera-Ln-92110/home/5276495,CRMLS,OC23172851,N,Y,32.7559552,-117.2256785
MLS Listing,,Condo/Co-op,1080 Park Blvd #307,San Diego,CA,92101,599999,2,2.0,Downtown,1037,29550,2007,3,579,762,Active,,,https://www.redfin.com/CA/San-Diego/1080-Park-Blvd-92101/unit-307/home/17201458,SDMLS,230018122,N,Y,32.7164818,-117.1539423
MLS Listing,,Condo/Co-op,700 W E St #2702,San Diego,CA,92101,1150000,2,2.0,Downtown,1055,,2007,3,1090,1454,Active,,,https://www.redfin.com/CA/San-Diego/700-W-E-St-92101/unit-2702/home/12159376,SDMLS,230018119,N,Y,32.7151009,-117.1694651
MLS Listing,,Single Family Residential,14277 Dalhousie Rd,San Diego,CA,92129,1350000,4,2.5,Rancho Penasquitos,2364,7755,1987,3,571,,Active,,,https://www.redfin.com/CA/San-Diego/14277-Dalhousie-Rd-92129/home/4606712,SDMLS,230018117,N,Y,32.9759537,-117.1291375
MLS Listing,,Single Family Residential,2125 Puerto Del Mundo,Fallbrook,CA,92028,1250000,1,1.0,Fallbrook,908,987941,,3,1377,,Active,,,https://www.redfin.com/CA/Fallbrook/2125-Puerto-del-Mundo-92028/home/3090013,TheMLS,23-311069,N,Y,33.3596218,-117.170476
MLS Listing,,Single Family Residential,4949 Demeter,Oceanside,CA,92056,980000,2,2.0,92056 - Oceanside,1482,6538,1997,3,661,577,Active,,,https://www.redfin.com/CA/Oceanside/4949-Demeter-Way-92056/home/3456687,CRMLS,NDP2307232,N,Y,33.1541241,-117.2649938
MLS Listing,,Single Family Residential,923 Citrine Way,San Marcos,CA,92078,1498800,5,2.5,San Marcos,2721,5081,2004,3,551,85,Active,,,https://www.redfin.com/CA/San-Marcos/923-Citrine-Way-92078/home/7492855,SDMLS,230017976,N,Y,33.0995329,-117.1846278
MLS Listing,,Single Family Residential,2008 Avenida Palomino,Chula Vista,CA,91913,1290000,4,3.5,91913 - Chula Vista,2891,4356,2019,3,446,134,Active,,,https://www.redfin.com/CA/Chula-Vista/2008-Avenida-Palomino-91913/home/125766283,CRMLS,PTP2304496,N,Y,32.598048,-116.9966244
MLS Listing,,Single Family Residential,4575 Sherlock Ct,San Diego,CA,92122,1695000,4,2.5,San Diego,2544,6600,1978,3,666,132,Active,,,https://www.redfin.com/CA/San-Diego/4575-Sherlock-Ct-92122/home/4869847,SDMLS,230018113,N,Y,32.8695188,-117.2081965
MLS Listing,,Single Family Residential,10105 Shaggybark,Santee,CA,92071,749000,3,2.0,92071 - Santee,1032,6000,1971,3,726,,Active,,,https://www.redfin.com/CA/Santee/10105-Shaggybark-Dr-92071/home/5006082,CRMLS,PTP2304495,N,Y,32.8689369,-116.9774008
MLS Listing,,Single Family Residential,5007 Avenida De La Plata,Oceanside,CA,92057,1150000,4,2.5,92057 - Oceanside,2565,7865,1994,3,448,,Active,,,https://www.redfin.com/CA/Oceanside/5007-Avenida-de-la-Plata-92057/home/3287476,CRMLS,NDP2307231,N,Y,33.2297518,-117.2861881
MLS Listing,,Single Family Residential,1007 Holly,Imperial Beach,CA,91932,849000,3,2.0,Imperial Beach,1008,,1959,3,842,,Active,,,https://www.redfin.com/CA/Imperial-Beach/1007-Holly-Ave-91932/home/6168944,SDMLS,230018112,N,Y,32.5713063,-117.1118369
MLS Listing,,Single Family Residential,4271 Cindy St,San Diego,CA,92117,1175000,3,2.0,Clairemont,1500,,1958,3,783,,Active,,,https://www.redfin.com/CA/San-Diego/4271-Cindy-St-92117/home/4958381,SDMLS,230018111,N,Y,32.8250735,-117.1988771
MLS Listing,,Condo/Co-op,3454 Castle Glen Dr #127,San Diego,CA,92123,599900,4,2.0,Mission Valley,1126,209762,1974,3,533,476,Active,,,https://www.redfin.com/CA/San-Diego/3454-Castle-Glen-Dr-92123/unit-127/home/6688316,SDMLS,230018110,N,Y,32.8054195,-117.130735
MLS Listing,,Townhouse,11022 Creekbridge Pl,San Diego,CA,92128,899000,3,2.5,92128 - Rancho Bernardo,1335,,1991,3,673,300,Active,,,https://www.redfin.com/CA/San-Diego/11022-Creekbridge-Pl-92128/home/4777489,CRMLS,PTP2304452,N,Y,32.9460582,-117.0931411
MLS Listing,,Single Family Residential,12858 Gambusa Way,San Diego,CA,92129,1300000,3,2.0,92129 - Rancho Penasquitos,1807,4809,1986,3,719,,Active,,,https://www.redfin.com/CA/San-Diego/12858-Gambusa-Way-92129/home/4766922,CRMLS,PTP2304494,N,Y,32.9498685,-117.1331297
MLS Listing,,Single Family Residential,4063 MARIAN St,La Mesa,CA,91941,849900,3,2.0,La Mesa,1104,,1946,3,770,,Active,,,https://www.redfin.com/CA/La-Mesa/4063-Marian-St-91941/home/5523336,SDMLS,230018108,N,Y,32.7517902,-117.0467906
MLS Listing,,Single Family Residential,24533 Tesoro Way,Ramona,CA,92065,759000,4,3.5,92065 - Ramona,2233,21780,2021,3,340,150,Active,,,https://www.redfin.com/CA/Ramona/24533-Tesoro-Way-92065/home/22731081,CRMLS,NDP2307228,N,Y,33.0115385,-116.8010887
MLS Listing,,Single Family Residential,13216 Saddle Ridge Rd,Lakeside,CA,92040,649000,4,2.0,92040 - Lakeside,1373,3700,1974,3,473,270,Active,,,https://www.redfin.com/CA/Lakeside/13216-Saddle-Ridge-Rd-92040/home/5086474,CRMLS,PTP2304187,N,Y,32.8476704,-116.9092563
MLS Listing,,Condo/Co-op,2978 Elm Tree Ct,Spring Valley,CA,91978,480000,2,2.0,91978 - Spring Valley,916,64796,1986,3,524,422,Active,,,https://www.redfin.com/CA/Spring-Valley/2978-Elm-Tree-Ct-91978/home/5682007,CRMLS,PTP2304482,N,Y,32.7329523,-116.9607235
MLS Listing,,Single Family Residential,8650 Glenhaven St,San Diego,CA,92123,799000,3,2.0,92123 - San Diego,1381,6300,1960,3,579,,Active,,,https://www.redfin.com/CA/San-Diego/8650-Glenhaven-St-92123/home/5170879,CRMLS,NDP2307079,N,Y,32.8057973,-117.1417581
MLS Listing,,Single Family Residential,1260 Loch Lomond Dr,Cardiff By The Sea,CA,92007,1375000,3,2.0,92007 - Cardiff By The Sea,1481,6000,1964,3,928,,Active,,,https://www.redfin.com/CA/Cardiff-by-the-Sea/1260-Loch-Lomond-Dr-92007/home/4142885,CRMLS,NDP2307199,N,Y,33.0341804,-117.2792308
MLS Listing,,Single Family Residential,417 Lexington Cir,Oceanside,CA,92057,999999,4,2.5,92057 - Oceanside,2672,5025,2000,3,374,78,Active,,,https://www.redfin.com/CA/Oceanside/417-Lexington-Cir-92057/home/3320895,CRMLS,NDP2307129,N,Y,33.221539,-117.3131753
MLS Listing,,Single Family Residential,641 Valley Dr,Vista,CA,92084,879000,3,2.0,92084 - Vista,1952,33976,1966,3,450,,Active,,,https://www.redfin.com/CA/Vista/641-Valley-Dr-92084/home/3512503,CRMLS,NDP2306776,N,Y,33.1970163,-117.2129972
MLS Listing,,Condo/Co-op,4444 W Point Loma Blvd #63,San Diego,CA,92107,499000,1,1.0,92107 - Ocean Beach,725,,1966,3,688,535,Active,,,https://www.redfin.com/CA/San-Diego/4444-W-Point-Loma-Blvd-92107/unit-63/home/5273092,CRMLS,NDP2307217,N,Y,32.7526921,-117.2325758
MLS Listing,,Single Family Residential,1635 Calmin Dr,Fallbrook,CA,92028,830000,3,2.0,92028 - Fallbrook,1809,25265,1996,3,459,,Active,,,https://www.redfin.com/CA/Fallbrook/1635-Calmin-Dr-92028/home/3081693,CRMLS,SW23170247,N,Y,33.3667802,-117.2241831
MLS Listing,,Condo/Co-op,6190 Agee St #255,San Diego,CA,92122,510000,1,1.0,92122 - University City,692,141107,1978,3,737,404,Active,,,https://www.redfin.com/CA/San-Diego/6190-Agee-St-92122/unit-255/home/4892736,CRMLS,SW23166640,N,Y,32.8522127,-117.2035524
MLS Listing,,Single Family Residential,10035 Country View Rd,La Mesa,CA,91941,1350000,4,2.0,Mount Helix,2673,17350,1952,3,505,,Active,,,https://www.redfin.com/CA/La-Mesa/10035-Country-View-Rd-91941/home/5607831,SDMLS,230017847,N,Y,32.7747512,-116.9803902
MLS Listing,,Single Family Residential,11367 WILLS CREEK Rd,San Diego,CA,92131,1799000,6,4.5,Scripps Ranch,3125,6516,1998,3,576,45,Active,,,https://www.redfin.com/CA/San-Diego/11367-Wills-Creek-Rd-92131/home/4825547,SDMLS,230018105,N,Y,32.925696,-117.0837444
MLS Listing,,Condo/Co-op,3431 Park Blvd #401,San Diego,CA,92103,725000,2,2.0,San Diego,953,27798,1970,3,761,475,Active,,,https://www.redfin.com/CA/San-Diego/3431-Park-Blvd-92103/unit-401/home/5374814,SDMLS,230018058,N,Y,32.7419716,-117.1471097
MLS Listing,,Condo/Co-op,8666 Via Mallorca Unit J,La Jolla,CA,92037,620000,1,1.0,La Jolla,691,,2000,3,897,315,Active,,,https://www.redfin.com/CA/La-Jolla/8666-Via-Mallorca-92037/unit-J/home/4885356,SDMLS,230017904,N,Y,32.863357,-117.233833
MLS Listing,,Single Family Residential,4672 Mount Gaywas,Clairemont,CA,92117,789000,3,2.0,Clairemont,1196,,1959,3,660,,Active,,,https://www.redfin.com/CA/San-Diego/4672-Mount-Gaywas-Dr-92117/home/4960403,SDMLS,230018090,N,Y,32.8255741,-117.1918411
MLS Listing,,Townhouse,4355 Rialto St #5,San Diego,CA,92107,699000,2,2.0,Point Loma,872,,1984,3,802,152,Active,September-23-2023 11:00 AM,September-23-2023 02:00 PM,https://www.redfin.com/CA/San-Diego/4355-Rialto-St-92107/unit-5/home/5352074,SDMLS,230017916,N,Y,32.7518623,-117.2304531
MLS Listing,,Single Family Residential,1440 Mackinnon Ave,Cardiff By The Sea,CA,92007,1947000,5,3.0,Cardiff by the Sea,2500,,2019,3,779,227,Active,,,https://www.redfin.com/CA/Cardiff-by-the-Sea/1440-Mackinnon-Ave-92007/home/145703635,SDMLS,230018046,N,Y,33.0323663,-117.277547
MLS Listing,,Single Family Residential,1729 Kingston Dr,Escondido,CA,92027,828888,4,2.0,East Escondido,1770,,1969,3,468,,Active,,,https://www.redfin.com/CA/Escondido/1729-Kingston-Dr-92027/home/3978068,SDMLS,230017859,N,Y,33.1282827,-117.0515261
MLS Listing,,Single Family Residential,5356 Montego Pl,San Diego,CA,92124,1249950,5,2.5,Tierrasanta,2217,8500,1974,3,564,,Active,,,https://www.redfin.com/CA/San-Diego/5356-Montego-Pl-92124/home/4982593,SDMLS,230018107,N,Y,32.8294603,-117.1029201
MLS Listing,,Townhouse,3890 Nobel Dr #1705,San Diego,CA,92122,799000,3,2.0,University City,1535,,1991,4,521,3781,Active,,,https://www.redfin.com/CA/San-Diego/3890-Nobel-Dr-92122/unit-1705/home/4871518,SDMLS,230018104,N,Y,32.868799,-117.223007
MLS Listing,,Vacant Land,20475 Elfin Forest Rd,Escondido,CA,92029,1099000,0,,Elfin Forest,,115434,,4,,,Active,,,https://www.redfin.com/CA/Escondido/20475-Elfin-Forest-Rd-92029/home/187495384,SDMLS,230018103,N,Y,33.0834124,-117.1835232
MLS Listing,,Single Family Residential,4692 Adra Way,Oceanside,CA,92056,949000,2,3.5,92056 - Oceanside,2180,3588,1983,4,435,644,Active,,,https://www.redfin.com/CA/Oceanside/4692-Adra-Way-92056/home/3446223,CRMLS,OC23172881,N,Y,33.164519,-117.262502
MLS Listing,,Single Family Residential,714 Lido Ct,San Diego,CA,92109,3199000,4,3.5,Mission Beach,2023,1913,2005,4,1581,,Active,,,https://www.redfin.com/CA/San-Diego/714-Lido-Ct-92109/home/5184620,SDMLS,230018100,N,Y,32.7768779,-117.2527652
MLS Listing,,Single Family Residential,8742 Our Way,Santee,CA,92071,620000,3,1.0,Santee,860,8083,1974,4,721,,Active,,,https://www.redfin.com/CA/Santee/8742-Our-Way-92071/home/5041040,SDMLS,230018101,N,Y,32.8340635,-117.0072012
MLS Listing,,Condo/Co-op,5700 Baltimore Dr #24,La Mesa,CA,91942,540000,2,1.5,La Mesa,1068,,1971,4,506,527,Active,,,https://www.redfin.com/CA/La-Mesa/5700-Baltimore-Dr-91942/unit-24/home/5446326,SDMLS,230018099,N,Y,32.7835166,-117.0339721
MLS Listing,,Condo/Co-op,1262 Kettner Blvd #804,San Diego,CA,92101,1298888,2,2.0,San Diego,1535,21291,2008,4,846,1300,Active,,,https://www.redfin.com/CA/San-Diego/1262-Kettner-Blvd-92101/unit-804/home/21661894,SDMLS,230018098,N,Y,32.7186717,-117.169557
MLS Listing,,Townhouse,331 Chestnut Ave,Carlsbad,CA,92008,1424999,3,2.5,92008 - Carlsbad,1605,,1996,4,888,320,Active,,,https://www.redfin.com/CA/Carlsbad/331-Chestnut-Ave-92008/home/3686454,CRMLS,NDP2307225,N,Y,33.1539205,-117.3465924
MLS Listing,,Single Family Residential,4823 Hart Dr,San Diego,CA,92116,1295000,2,1.5,Kensington,1137,5235,1941,4,1139,,Active,,,https://www.redfin.com/CA/San-Diego/4823-Hart-Dr-92116/home/5455700,SDMLS,230018097,N,Y,32.7663753,-117.1020428
MLS Listing,,Single Family Residential,1912 San Pablo Dr,San Marcos,CA,92078,1249000,3,2.0,92078 - San Marcos,1475,7100,1964,4,847,,Active,,,https://www.redfin.com/CA/San-Marcos/1912-San-Pablo-Dr-92078/home/3840917,CRMLS,PTP2304493,N,Y,33.1266925,-117.2022641
MLS Listing,,Single Family Residential,2442 Sunflower Ter,Vista,CA,92083,859000,3,2.0,Vista,1576,15610,1976,4,545,,Active,,,https://www.redfin.com/CA/Vista/2442-Sunflower-Ter-92083/home/3797021,SDMLS,230018095,N,Y,33.1650867,-117.2115042
MLS Listing,,Condo/Co-op,425 W Beech St #712,San Diego,CA,92101,519999,1,1.0,Downtown,676,,2004,4,769,802,Active,,,https://www.redfin.com/CA/San-Diego/425-W-Beech-St-92101/unit-712/home/6640942,SDMLS,230018094,N,Y,32.7206773,-117.1668231
MLS Listing,,Condo/Co-op,1775 Diamond St #126,San Diego,CA,92109,699000,2,2.0,92109 - Pacific Beach,1033,,1975,4,677,569,Active,,,https://www.redfin.com/CA/San-Diego/1775-Diamond-St-92109/unit-126/home/5141709,CRMLS,NDP2307223,N,Y,32.8030865,-117.2382425
MLS Listing,,Single Family Residential,138 Canyon Creek Way,Oceanside,CA,92057,925000,4,2.0,92057 - Oceanside,2012,6049,2004,4,460,252,Active,,,https://www.redfin.com/CA/Oceanside/138-Canyon-Creek-Way-92057/home/7492590,CRMLS,NDP2307222,N,Y,33.2273477,-117.30699
MLS Listing,,Single Family Residential,11184 Camarosa Cir,San Diego,CA,92126,1199000,5,2.0,92126 - Mira Mesa,1734,6842,1975,4,691,,Active,,,https://www.redfin.com/CA/San-Diego/11184-Camarosa-Cir-92126/home/4542057,CRMLS,PTP2304492,N,Y,32.9252728,-117.1379178
MLS Listing,,Townhouse,16750 Coyote Bush #47,San Diego,CA,92127,1249000,3,2.5,Rancho Bernardo,1787,,2019,4,699,442,Active,,,https://www.redfin.com/CA/San-Diego/16750-Coyote-Bush-Dr-92127/unit-47/home/167684527,SDMLS,230018093,N,Y,33.0193536,-117.1295693
MLS Listing,,Condo/Co-op,7858 Cowles Mountain Ct Unit D25,San Diego,CA,92119,409000,1,1.0,San Carlos,724,,1971,4,565,475,Active,,,https://www.redfin.com/CA/San-Diego/7858-Cowles-Mountain-Ct-92119/unit-D25/home/6253825,SDMLS,230018092,N,Y,32.8025687,-117.0277785
MLS Listing,,Condo/Co-op,3060 6th Ave #15,San Diego,CA,92103,1049000,2,2.0,San Diego,1366,14579,1991,4,768,1015,Pre On-Market,,,https://www.redfin.com/CA/San-Diego/3060-6th-Ave-92103/unit-15/home/5376925,SDMLS,230018091,N,Y,32.7373773,-117.1597187
MLS Listing,,Single Family Residential,16415 Highland Trails Dr,Ramona,CA,92065,899000,2,2.0,Ramona,1152,387248,2003,4,780,,Active,,,https://www.redfin.com/CA/Ramona/16415-Highland-Trails-Dr-92065/home/4269031,SDMLS,230018089,N,Y,33.0527386,-116.9649827
MLS Listing,,Single Family Residential,573 N Westwind Dr,El Cajon,CA,92020,1175000,5,4.5,El Cajon,3060,11300,1947,4,384,,Active,,,https://www.redfin.com/CA/El-Cajon/573-N-Westwind-Dr-92020/home/5582679,SDMLS,230018087,N,Y,32.8019428,-116.9934512
MLS Listing,,Single Family Residential,2916 Caminito Niquel,San Diego,CA,92117,999999,3,3.0,Clairemont,1501,440175,1978,4,666,280,Active,,,https://www.redfin.com/CA/San-Diego/2916-Caminito-Niquel-92117/home/4949113,SDMLS,230018085,N,Y,32.8247543,-117.2239197
MLS Listing,,Condo/Co-op,6725 Mission Gorge Rd Unit 205B,San Diego,CA,92120,410000,1,1.0,San Diego,662,69788,1980,4,619,460,Active,,,https://www.redfin.com/CA/San-Diego/6725-Mission-Gorge-Rd-92120/unit-205B/home/5431980,SDMLS,230017926,N,Y,32.7955049,-117.0949912
MLS Listing,,Condo/Co-op,149 Fourth Ave #19,Chula Vista,CA,91910,399999,2,1.5,91910 - Chula Vista,1000,,1965,4,400,500,Active,,,https://www.redfin.com/CA/Chula-Vista/149-Fourth-Ave-91910/unit-19/home/5946466,CRMLS,PTP2304491,N,Y,32.6456104,-117.0854413
MLS Listing,,Single Family Residential,2260 E Mission Rd,Fallbrook,CA,92028,1100000,3,2.5,Fallbrook,3090,71438,1975,4,356,,Active,September-24-2023 01:00 PM,September-24-2023 04:00 PM,https://www.redfin.com/CA/Fallbrook/2260-E-Mission-Rd-92028/home/3063550,SDMLS,230018084,N,Y,33.3917554,-117.2150185
MLS Listing,,Single Family Residential,10165 Boulder Knolls Dr,Escondido,CA,92026,1000000,3,2.0,Valley Center,2195,49222,1979,4,456,,Active,,,https://www.redfin.com/CA/Escondido/10165-Boulder-Knolls-Dr-92026/home/3605203,SDMLS,230018083,N,Y,33.2239775,-117.1113539
MLS Listing,,Single Family Residential,6435 Jouglard St,San Diego,CA,92114,750000,4,3.0,Paradise Hills,1500,7611,1983,4,500,,Active,,,https://www.redfin.com/CA/San-Diego/6435-Jouglard-St-92114/home/6016558,SDMLS,230018082,N,Y,32.6902859,-117.0572039
MLS Listing,,Single Family Residential,656 Norwynn Ln,Fallbrook,CA,92028,865000,4,3.0,92028 - Fallbrook,2531,26136,1978,4,342,,Active,,,https://www.redfin.com/CA/Fallbrook/656-Norwynn-Ln-92028/home/3078327,CRMLS,NDP2307221,N,Y,33.3721671,-117.2226672
MLS Listing,,Multi-Family (2-4 Unit),4920 Icaria Way,Oceanside,CA,92056,749000,2,2.0,92056 - Oceanside,1106,4725,1989,4,677,644,Active,,,https://www.redfin.com/CA/Oceanside/4920-Icaria-Way-92056/home/3446521,CRMLS,NDP2307220,N,Y,33.160727,-117.261828
MLS Listing,,Single Family Residential,3641 Bangerter Ct,Escondido,CA,92027,949000,4,2.0,92027 - Escondido,1802,21780,1970,4,527,,Active,,,https://www.redfin.com/CA/Escondido/3641-Bangerter-Ct-92027/home/4044826,CRMLS,NDP2307219,N,Y,33.1617793,-117.0284912
MLS Listing,,Single Family Residential,4360 Olive Ave,La Mesa,CA,91941,789000,3,2.0,La Mesa,1116,6000,1950,4,707,,Active,,,https://www.redfin.com/CA/La-Mesa/4360-Olive-Ave-91941/home/6426653,SDMLS,230018077,N,Y,32.7577694,-117.0357262
MLS Listing,,Mobile/Manufactured Home,10767 Jamacha Blvd #76,Spring Valley,CA,91978,145000,2,1.0,91978 - Spring Valley,760,1423540,1972,4,191,,Active,,,https://www.redfin.com/CA/Spring-Valley/10767-Jamacha-Blvd-91978/unit-76/home/187486132,CRMLS,PTP2304489,N,Y,32.7276249,-116.9606789
MLS Listing,,Single Family Residential,545 Kurdson Way,Spring Valley,CA,91977,895000,4,3.0,91977 - Spring Valley,2321,6098,1978,4,386,,Active,,,https://www.redfin.com/CA/Spring-Valley/545-Kurdson-Way-91977/home/6034887,CRMLS,PTP2304488,N,Y,32.7070189,-117.0030965
MLS Listing,,Townhouse,6947 Camino Degrazia,San Diego,CA,92111,849000,3,3.0,San Diego,1492,1665,1983,4,569,236,Active,,,https://www.redfin.com/CA/San-Diego/6947-Camino-Degrazia-92111/home/5250418,TheMLS,23-311623,N,Y,32.7709569,-117.1684544
MLS Listing,,Single Family Residential,503 S Upas St,Escondido,CA,92025,899000,4,2.0,92025 - Escondido,2112,11300,1962,4,426,,Active,,,https://www.redfin.com/CA/Escondido/503-S-Upas-St-92025/home/3987875,CRMLS,NDP2307216,N,Y,33.1107117,-117.0913369
MLS Listing,,Single Family Residential,4054 Mount Barnard Ave,San Diego,CA,92111,1175000,4,3.0,Clairemont,2351,6000,1959,4,500,,Active,,,https://www.redfin.com/CA/San-Diego/4054-Mount-Barnard-Ave-92111/home/5151620,SDMLS,230018076,N,Y,32.8146727,-117.1896358
MLS Listing,,Single Family Residential,16751 Republican Way,Ramona,CA,92065,1299900,3,3.0,Ramona,3316,35719,1988,4,392,150,Active,,,https://www.redfin.com/CA/Ramona/16751-Republican-Way-92065/home/4310489,SDMLS,230018074,N,Y,33.0179407,-116.7991554
MLS Listing,,Condo/Co-op,666 Upas #1101,San Diego,CA,92103,1575000,1,2.0,San Diego,1768,,1973,4,891,1243,Active,,,https://www.redfin.com/CA/San-Diego/666-Upas-St-92103/unit-1101/home/5374299,SDMLS,230018075,N,Y,32.741274,-117.1587587
MLS Listing,,Condo/Co-op,5790 Friars Rd Unit E-6,San Diego,CA,92110,498000,1,1.0,92108 - Mission Valley,870,,1981,4,572,415,Active,,,https://www.redfin.com/CA/San-Diego/5790-Friars-Rd-92110/unit-E6/home/5239637,CRMLS,NDP2307215,N,Y,32.7657808,-117.1880966
MLS Listing,,Single Family Residential,12167 Caminito Corriente,San Diego,CA,92128,1175000,3,2.0,Rancho Bernardo,1971,,1986,4,596,345,Active,,,https://www.redfin.com/CA/San-Diego/12167-Caminito-Corriente-92128/home/4632682,SDMLS,230018073,N,Y,32.9963848,-117.0707384
MLS Listing,,Condo/Co-op,1508 Circa Del Lago Unit B311,San Marcos,CA,92078,370000,2,1.5,92078 - San Marcos,1030,,1987,4,359,2856,Active,,,https://www.redfin.com/CA/San-Marcos/1508-Circa-Del-Lago-92078/unit-B311/home/3846223,CRMLS,NDP2307214,N,Y,33.1238477,-117.2104959
MLS Listing,,Townhouse,425 W Beech St #1706,San Diego,CA,92101,1099900,2,2.5,Downtown,1379,,2004,4,798,900,Active,,,https://www.redfin.com/CA/San-Diego/425-W-Beech-St-92101/unit-1706/home/6674502,SDMLS,230018072,N,Y,32.7206773,-117.1668231
MLS Listing,,Single Family Residential,6125 Nagel St,La Mesa,CA,91942,899000,3,2.0,91942 - La Mesa,1054,6534,1953,4,853,,Active,,,https://www.redfin.com/CA/La-Mesa/6125-Nagel-St-91942/home/5578762,CRMLS,NDP2307213,N,Y,32.7897406,-117.0126187
MLS Listing,,Condo/Co-op,18826 Caminito Cantilena #111,San Diego,CA,92128,599000,2,2.5,Rancho Bernardo,1275,129430,1993,4,470,115,Active,,,https://www.redfin.com/CA/San-Diego/18826-Caminito-Cantilena-92128/unit-111/home/4215294,SDMLS,230018071,N,Y,33.0525279,-117.0713603
MLS Listing,,Townhouse,4107 Vela Way,Oceanside,CA,92057,799900,3,2.5,92057 - Oceanside,1545,1,2019,4,518,274,Active,,,https://www.redfin.com/CA/Oceanside/4107-Vela-Way-92057/home/170146124,CRMLS,NDP2307212,N,Y,33.2319782,-117.3153953
MLS Listing,,Single Family Residential,2946 Fledgling Dr,Escondido,CA,92029,1299000,5,4.5,92029 - Escondido,3640,6021,2017,4,357,230,Active,,,https://www.redfin.com/CA/Escondido/2946-Fledgling-Dr-92029/home/58185581,CRMLS,PTP2304486,N,Y,33.1056511,-117.1325647
MLS Listing,,Condo/Co-op,4817 Bella Pacific #108,San Diego,CA,92109,899000,3,2.0,92109 - Pacific Beach,1288,,1987,4,698,456,Active,,,https://www.redfin.com/CA/San-Diego/4817-Bella-Pacific-Row-92109/unit-108/home/5148113,CRMLS,NDP2307211,N,Y,32.8098555,-117.2201407
MLS Listing,,Single Family Residential,2167 Reineman Rd,Fallbrook,CA,92028,799000,3,2.0,92028 - Fallbrook,1346,24393,1983,4,594,,Active,,,https://www.redfin.com/CA/Fallbrook/2167-Reineman-Rd-92028/home/3078674,CRMLS,PTP2304485,N,Y,33.3538188,-117.2365025
MLS Listing,,Single Family Residential,10361 Matador Ct,San Diego,CA,92124,1150000,3,2.0,92124 - Tierrasanta,1503,5700,1971,4,765,,Active,,,https://www.redfin.com/CA/San-Diego/10361-Matador-Ct-92124/home/4982358,CRMLS,SW23172713,N,Y,32.8333243,-117.1062789
MLS Listing,,Single Family Residential,1855 Reed Ave,San Diego,CA,92109,1799900,3,2.0,Pacific Beach,1920,6800,1940,4,937,,Pre On-Market,,,https://www.redfin.com/CA/San-Diego/1855-Reed-Ave-92109/home/5191867,SDMLS,230018069,N,Y,32.7968,-117.2347555
MLS Listing,,Single Family Residential,18880 Caminito Cantilena #63,San Diego,CA,92128,1049000,3,2.5,92128 - Rancho Bernardo,1362,,2000,4,770,193,Active,,,https://www.redfin.com/CA/San-Diego/18880-Caminito-Cantilena-92128/unit-63/home/4216268,CRMLS,NDP2307209,N,Y,33.0537981,-117.0707059
MLS Listing,,Single Family Residential,2126 Opal Rdg,Vista,CA,92081,1099900,4,2.5,Vista,2701,,1994,4,407,,Active,,,https://www.redfin.com/CA/Vista/2126-Opal-Rdg-92081/home/3831174,SDMLS,230018066,N,Y,33.1478152,-117.2410585
MLS Listing,,Townhouse,2002 Leafwood,Encinitas,CA,92024,1348000,3,2.5,Encinitas,1736,,1980,4,776,300,Pre On-Market,,,https://www.redfin.com/CA/Encinitas/2002-Leafwood-Pl-92024/home/4100361,SDMLS,230018065,N,Y,33.053203,-117.241925
MLS Listing,,Condo/Co-op,687 South Coast Highway 101 #204,Encinitas,CA,92024,899000,1,1.0,92024 - Encinitas,956,60548,2010,4,940,591,Active,,,https://www.redfin.com/CA/Encinitas/687-S-Coast-Highway-101-92024/unit-204/home/40521144,CRMLS,SW23170058,N,Y,33.043817,-117.293334
MLS Listing,,Single Family Residential,16101 Via Madera Circa E,Rancho Santa Fe,CA,92091,2399000,4,3.0,Rancho Santa Fe,2983,8026,1970,4,804,8,Active,September-19-2023 01:00 PM,September-19-2023 04:00 PM,https://www.redfin.com/CA/Rancho-Santa-Fe/16101-Via-Madera-Circa-E-92091/home/4445391,SDMLS,230018064,N,Y,32.9931373,-117.2105165
