SALE TYPE,SOLD DATE,PROPERTY TYPE,ADDRESS,CITY,STATE OR PROVINCE,ZIP OR POSTAL CODE,PRICE,BEDS,BATHS,LOCATION,SQUARE FEET,LOT SIZE,YEAR BUILT,DAYS ON MARKET,$/SQUARE FEET,HOA/MONTH,STATUS,NEXT OPEN HOUSE START TIME,NEXT OPEN HOUSE END TIME,URL (SEE https://www.redfin.com/buy-a-home/comparative-market-analysis FOR INFO ON PRICING),SOURCE,MLS#,FAVORITE,INTERESTED,LATITUDE,LONGITUDE
MLS Listing,,Single Family Residential,10652 Dixie Dr,Anaheim,CA,92804,799000,3,2.0,79 - Anaheim West of Harbor,1321,7200,1954,3,605,,Active,,,https://www.redfin.com/CA/Anaheim/10652-Dixie-Dr-92804/home/3596809,CRMLS,OC23172189,N,Y,33.808166,-117.9614971
MLS Listing,,Condo/Co-op,36 Elderglen #34,Irvine,CA,92604,790000,3,1.5,WB - Woodbridge,1121,,1978,3,705,586,Active,,,https://www.redfin.com/CA/Irvine/36-Elderglen-92604/unit-34/home/5499007,CRMLS,OC23162596,N,Y,33.6821461,-117.7842804
MLS Listing,,Single Family Residential,23761 Coronel Dr,Mission Viejo,CA,92691,1189800,4,2.0,MC - Mission Viejo Central,1604,5795,1971,4,742,,Active,,,https://www.redfin.com/CA/Mission-Viejo/23761-Coronel-Dr-92691/home/5080361,CRMLS,PW23164199,N,Y,33.6175852,-117.6708706
MLS Listing,,Condo/Co-op,47 Pinzon,Rancho Santa Margarita,CA,92688,699900,2,2.0,R2 - Rancho Santa Margarita Central,1100,,1990,4,636,500,Active,,,https://www.redfin.com/CA/Rancho-Santa-Margarita/47-Pinzon-92688/home/5224991,CRMLS,OC23171151,N,Y,33.6186968,-117.620219
MLS Listing,,Single Family Residential,26285 Ibeza Rd,Mission Viejo,CA,92692,1899900,4,3.5,MS - Mission Viejo South,3559,6000,1993,5,534,171,Active,,,https://www.redfin.com/CA/Mission-Viejo/26285-Ibeza-Rd-92692/home/5031841,CRMLS,OC23171111,N,Y,33.5810396,-117.6432322
MLS Listing,,Condo/Co-op,26176 Sanz Unit A,Mission Viejo,CA,92691,549900,2,2.0,MN - Mission Viejo North,693,,1985,6,794,458,Active,,,https://www.redfin.com/CA/Mission-Viejo/26176-Sanz-92691/unit-A/home/5304562,CRMLS,OC23170277,N,Y,33.6228806,-117.6734143
MLS Listing,,Condo/Co-op,6146 E Morningview Dr,Anaheim Hills,CA,92807,938700,3,3.0,77 - Anaheim Hills,2177,,1981,11,431,592,Active,,,https://www.redfin.com/CA/Anaheim/6146-E-Morningview-Dr-92807/home/5696712,CRMLS,OC23166810,N,Y,33.8415765,-117.7762402
MLS Listing,,Single Family Residential,141 Lovelace,Irvine,CA,92620,2599000,4,4.5,EASTW - Eastwood,3047,3834,2022,11,853,125,Active,,,https://www.redfin.com/CA/Irvine/141-Lovelace-92620/home/167385327,CRMLS,OC23166469,N,Y,33.71809,-117.743213
MLS Listing,,Condo/Co-op,38 Leucadia #67,Irvine,CA,92602,949000,2,2.0,NK - Northpark,1541,,2001,11,616,476,Active,,,https://www.redfin.com/CA/Irvine/38-Leucadia-92602/unit-67/home/5917733,CRMLS,OC23162526,N,Y,33.7189368,-117.7783251
MLS Listing,,Condo/Co-op,57 Golden Glen St #4,Irvine,CA,92604,675000,2,1.5,EC - El Camino Real,862,,1971,11,783,350,Active,,,https://www.redfin.com/CA/Irvine/57-Golden-Glen-St-92604/unit-4/home/5329876,CRMLS,OC23160925,N,Y,33.6925579,-117.7738543
MLS Listing,,Townhouse,345 University Dr Unit K3,Costa Mesa,CA,92627,879000,3,2.5,C5 - East Costa Mesa,1348,,1974,11,652,375,Active,,,https://www.redfin.com/CA/Costa-Mesa/345-University-Dr-92627/unit-K3/home/179412611,CRMLS,OC23166791,N,Y,33.657004,-117.8890831
MLS Listing,,Townhouse,7140 Kelton Way,Stanton,CA,90680,629900,3,1.5,"61 - N of Gar Grv, S Of Ball, E of Knott, W of Dal",1121,1460,1971,12,562,265,Active,,,https://www.redfin.com/CA/Stanton/7140-Kelton-Way-90680/home/3639520,CRMLS,OC23165598,N,Y,33.7999336,-118.0088599
MLS Listing,,Single Family Residential,27793 Espinoza,Mission Viejo,CA,92692,799000,2,2.0,MC - Mission Viejo Central,1230,3478,1977,13,650,587,Active,,,https://www.redfin.com/CA/Mission-Viejo/27793-Espinoza-92692/home/5073394,CRMLS,OC23160670,N,Y,33.6140511,-117.6457029
MLS Listing,,Single Family Residential,3973 Sage Ridge Dr,Yorba Linda,CA,92887,2499000,5,4.5,85 - Yorba Linda,4823,19123,2003,17,518,405,Active,,,https://www.redfin.com/CA/Yorba-Linda/3973-Sage-Ridge-Dr-92887/home/5920781,CRMLS,OC23155433,N,Y,33.9045215,-117.7575407
MLS Listing,,Single Family Residential,2307 N Towner St,Santa Ana,CA,92706,1649000,4,3.0,70 - Santa Ana North of First,2741,10496,1973,17,602,,Active,,,https://www.redfin.com/CA/Santa-Ana/2307-N-Towner-St-92706/home/3046019,CRMLS,OC23162431,N,Y,33.7672904,-117.8791745
MLS Listing,,Condo/Co-op,29 Chandon,Laguna Niguel,CA,92677,899900,2,2.5,LNSLT - Salt Creek,1256,,1989,18,716,540,Active,,,https://www.redfin.com/CA/Laguna-Niguel/29-Chandon-92677/home/5388067,CRMLS,OC23162961,N,Y,33.5232505,-117.6910941
MLS Listing,,Single Family Residential,8721 Los Altos Dr,Buena Park,CA,90620,949000,3,2.0,82 - Buena Park,1192,6324,1956,24,796,,Active,,,https://www.redfin.com/CA/Buena-Park/8721-Los-Altos-Dr-90620/home/4026774,CRMLS,OC23157526,N,Y,33.836051,-118.032564
MLS Listing,,Condo/Co-op,1051 S Volterra Way,Anaheim Hills,CA,92808,747400,3,3.0,77 - Anaheim Hills,1181,,1994,31,633,352,Active,,,https://www.redfin.com/CA/Anaheim/1051-S-Volterra-Way-92808/home/5345531,CRMLS,OC23151567,N,Y,33.849104,-117.7369753
MLS Listing,,Vacant Land,14281 Edwards,Westminster,CA,92683,1200000,,,"60 - Westminster South of Westminster, W of Beach",,4792,,59,,,Active,,,https://www.redfin.com/CA/Westminster/14281-Edwards-St-92683/home/177697771,CRMLS,OC23132596,N,Y,33.7546709,-118.0158994
MLS Listing,,Condo/Co-op,12700 Newport Ave #46,Tustin,CA,92780,614000,2,2.0,71 - Tustin,1114,,1969,68,551,542,Active,,,https://www.redfin.com/CA/Tustin/12700-Newport-Ave-92780/unit-46/home/5355427,CRMLS,OC23122938,N,Y,33.7520368,-117.8067909
MLS Listing,,Single Family Residential,1914 Court St,Newport Beach,CA,92663,4749000,4,3.5,NP - Balboa Peninsula,2089,1875,2023,77,2273,,Active,,,https://www.redfin.com/CA/Newport-Beach/1914-Court-St-92663/home/3235051,CRMLS,OC23077619,N,Y,33.6078879,-117.9271392
MLS Listing,,Single Family Residential,281 Santo Tomas Ave,Costa Mesa,CA,92627,1850000,3,3.0,C5 - East Costa Mesa,1726,6750,1955,94,1072,,Active,,,https://www.redfin.com/CA/Costa-Mesa/281-Santo-Tomas-Ave-92627/home/4635670,CRMLS,OC23107679,N,Y,33.6602464,-117.8894951
MLS Listing,,Vacant Land,4001 Hunky Dory Ln,Trabuco Canyon,CA,92679,399999,,,TC - Trabuco Canyon,,137214,,109,,,Active,,,https://www.redfin.com/CA/Trabuco-Canyon/4001-Hunky-Dory-Ln-92679/home/185586356,CRMLS,OC23094520,N,Y,33.680095386,-117.5982382
MLS Listing,,Condo/Co-op,435 W Center Street Promenade #316,Anaheim,CA,92805,680000,3,2.0,78 - Anaheim East of Harbor,1547,,2008,115,440,453,Active,,,https://www.redfin.com/CA/Anaheim/435-W-Center-Street-Promenade-92805/unit-316/home/17466318,CRMLS,PW23090714,N,Y,33.8335362,-117.9187214
MLS Listing,,Vacant Land,19952 E Daniel Ln,Orange,CA,92869,1899000,,,"75 - Orange, Orange Park Acres E of 55",,47916,,125,,,Active,,,https://www.redfin.com/CA/Orange/19952-E-Daniel-Ln-92869/home/185438145,CRMLS,OC23084505,N,Y,33.7976359,-117.7842532
MLS Listing,,Condo/Co-op,16291 Countess Dr #220,Huntington Beach,CA,92649,899999,2,2.0,17 - Northwest Huntington Beach,1129,,1985,128,797,850,Active,,,https://www.redfin.com/CA/Huntington-Beach/16291-Countess-Dr-92649/unit-220/home/5579116,CRMLS,OC23076756,N,Y,33.7267383,-118.0729776
MLS Listing,,Mobile/Manufactured Home,320 N Vista Park #75,Anaheim,CA,92806,189999,4,2.0,"93 - Anaheim N of River, E of Lakeview",,,1973,1,,,Active,,,https://www.redfin.com/CA/Anaheim/320-N-Park-Vista-St-92806/unit-75/home/5136447,CRMLS,OC23165184,N,Y,33.844671,-117.8655231
MLS Listing,,Multi-Family (2-4 Unit),2265 Pomona Ave,Costa Mesa,CA,92627,1800000,8,4.0,C2 - Southwest Costa Mesa,3300,10019,1962,1,545,,Active,,,https://www.redfin.com/CA/Costa-Mesa/2265-Pomona-Ave-92627/home/4564123,CRMLS,OC23142027,N,Y,33.6568781,-117.9286835
MLS Listing,,Single Family Residential,427 N Deerfield St,Anaheim,CA,92807,810000,3,2.0,699 - Not Defined,1502,7200,1971,1,539,,Active,,,https://www.redfin.com/CA/Anaheim/427-N-Deerfield-St-92807/home/4314483,CRMLS,OC23143056,N,Y,33.8523462,-117.8216866
MLS Listing,,Mobile/Manufactured Home,1750 Whittier Ave #25,Costa Mesa,CA,92627,350000,2,2.0,C2 - Southwest Costa Mesa,1512,,2013,1,231,,Active,,,https://www.redfin.com/CA/Costa-Mesa/1750-Whittier-Ave-92627/unit-25/home/58552480,CRMLS,IV23174188,N,Y,33.6386951,-117.9404378
MLS Listing,,Condo/Co-op,121 Stallion,Irvine,CA,92602,1650000,3,2.5,OH - Orchard Hills,1908,,2014,1,865,196,Active,,,https://www.redfin.com/CA/Irvine/121-Stallion-92602/home/112720482,CRMLS,OC23172261,N,Y,33.7341338,-117.7470771
MLS Listing,,Townhouse,924 Walnut St N #15,La Habra,CA,90631,618000,3,2.5,87 - La Habra,1210,,1999,1,511,280,Active,,,https://www.redfin.com/CA/La-Habra-Heights/924-N-Walnut-St-90631/unit-15/home/5840116,CRMLS,PW23174032,N,Y,33.940415,-117.949941
MLS Listing,,Condo/Co-op,701 W 1st St Unit D104,Santa Ana,CA,92701,495000,3,2.0,70 - Santa Ana North of First,1141,,1981,1,434,612,Active,,,https://www.redfin.com/CA/Santa-Ana/701-W-1st-St-92701/unit-D104/home/5604502,CRMLS,DW23174244,N,Y,33.7459213,-117.8750525
MLS Listing,,Single Family Residential,5421 Shrewsbury Ave,Fountain Valley,CA,92683,1198000,4,2.5,699 - Not Defined,1996,5200,1972,1,600,,Active,,,https://www.redfin.com/CA/Westminster/5421-Shrewsbury-Ave-92683/home/3892018,CRMLS,PW23174015,N,Y,33.7591339,-118.0353723
MLS Listing,,Mobile/Manufactured Home,603 Sea Breeze Dr #14,San Clemente,CA,92672,325000,3,2.0,SN - San Clemente North,1344,,2006,1,242,,Active,,,https://www.redfin.com/CA/San-Clemente/603-Sea-Breeze-Dr-92672/unit-14/home/103944202,CRMLS,OC23174196,N,Y,33.4416174,-117.6416279
MLS Listing,,Single Family Residential,12432 Interior Cir,Los Alamitos,CA,90720,957000,2,2.0,52 - Los Alamitos,1425,2590,1971,1,672,125,Active,,,https://www.redfin.com/CA/Los-Alamitos/12432-Interior-Cir-90720/home/3932261,CRMLS,PW23172583,N,Y,33.7820158,-118.0428365
MLS Listing,,Mobile/Manufactured Home,5815 E La Palma Ave #187,Anaheim,CA,92807,275000,3,2.0,77 - Anaheim Hills,1529,1906354,2002,1,180,,Active,September-23-2023 11:00 AM,September-23-2023 02:00 PM,https://www.redfin.com/CA/Anaheim/5815-E-La-Palma-Ave-92807/unit-187/home/5908452,CRMLS,CV23170797,N,Y,33.8598533,-117.7844058
MLS Listing,,Single Family Residential,30652 Shadetree Ln,San Juan Capistrano,CA,92675,7498000,7,8.0,JS - San Juan South,6949,113256,1991,1,1079,,Active,,,https://www.redfin.com/CA/San-Juan-Capistrano/30652-Shadetree-Ln-92675/home/4909191,CRMLS,OC23174108,N,Y,33.5173093,-117.6328148
MLS Listing,,Single Family Residential,2015 Leeward Ln,Newport Beach,CA,92660,6795000,5,6.5,N7 - West Bay - Santa Ana Heights,5963,8400,2019,1,1140,,Active,September-22-2023 11:00 AM,September-22-2023 02:00 PM,https://www.redfin.com/CA/Newport-Beach/2015-Leeward-Ln-92660/home/3562146,CRMLS,NP23167034,N,Y,33.6400834,-117.8933861
MLS Listing,,Multi-Family (2-4 Unit),4771 Grace Ave,Cypress,CA,90630,1839305,6,6.0,80 - Cypress North of Katella,2886,19116,1980,1,637,,Active,,,https://www.redfin.com/CA/Cypress/4771-Grace-Ave-90630/home/187530066,CRMLS,PW23174183,N,Y,33.8374199,-118.0500058
MLS Listing,,Single Family Residential,21392 Tarraco,Mission Viejo,CA,92692,1475000,3,2.5,MN - Mission Viejo North,2461,5130,1997,1,599,472,Active,,,https://www.redfin.com/CA/Mission-Viejo/21392-Tarraco-92692/home/5103286,CRMLS,OC23174175,N,Y,33.6517776,-117.626363
MLS Listing,,Condo/Co-op,,Newport Beach,CA,92663,1999000,3,2.5,N6 - Newport Heights,1869,4834,1989,1,1070,,Active,September-23-2023 12:00 PM,September-23-2023 04:00 PM,https://www.redfin.com/CA/Newport-Beach/Undisclosed-address-92663/home/5564667,CRMLS,PW23172446,N,Y,33.6277686,-117.92399
MLS Listing,,Mobile/Manufactured Home,9658 Westminster Ave #43,Garden Grove,CA,92844,210000,2,2.0,"65 - N of Blsa, S of GGrv, E of Bch, W of Brookhrs",870,,2018,1,241,,Active,,,https://www.redfin.com/CA/Garden-Grove/9658-Westminster-Ave-92844/unit-43/home/169480526,CRMLS,PW23174086,N,Y,33.7585642,-117.9608932
MLS Listing,,Single Family Residential,8790 Hillcrest Rd,Buena Park,CA,90621,2300000,4,4.5,82 - Buena Park,4850,17135,1980,1,474,,Active,,,https://www.redfin.com/CA/Buena-Park/8790-Hillcrest-Rd-90621/home/4102276,CRMLS,TR23174083,N,Y,33.89106,-117.9796742
MLS Listing,,Single Family Residential,10881 Flores Ct,Cypress,CA,90720,1350000,3,2.5,80 - Cypress North of Katella,1900,3000,2018,1,711,311,Active,,,https://www.redfin.com/CA/Cypress/10881-Flores-Ct-90720/home/169488763,CRMLS,PW23173252,N,Y,33.8049034,-118.0480198
MLS Listing,,Mobile/Manufactured Home,9658 Westminster Ave #7,Garden Grove,CA,92844,180000,2,2.0,"65 - N of Blsa, S of GGrv, E of Bch, W of Brookhrs",800,,2001,1,225,,Active,,,https://www.redfin.com/CA/Garden-Grove/9658-Westminster-Ave-92844/unit-7/home/5827387,CRMLS,PW23174075,N,Y,33.7585642,-117.9608932
MLS Listing,,Townhouse,261 Chinook Dr,Placentia,CA,92870,624900,2,2.0,84 - Placentia,1064,1632,1975,1,587,328,Active,,,https://www.redfin.com/CA/Placentia/261-Chinook-Dr-92870/home/4187974,CRMLS,PW23174059,N,Y,33.90556,-117.862342
MLS Listing,,Single Family Residential,6487 Pitcairn St,Cypress,CA,90630,880000,3,2.0,56 - Cypress South of Orangewood,1179,5031,1972,1,746,,Active,,,https://www.redfin.com/CA/Cypress/6487-Pitcairn-St-90630/home/3942977,CRMLS,IG23170302,N,Y,33.7926092,-118.0201951
MLS Listing,,Single Family Residential,28062 Espinoza,Mission Viejo,CA,92692,886000,3,2.0,MC - Mission Viejo Central,1472,3478,1979,1,602,588,Active,,,https://www.redfin.com/CA/Mission-Viejo/28062-Espinoza-92692/home/5076962,CRMLS,V1-19964,N,Y,33.6140389,-117.6409414
MLS Listing,,Single Family Residential,3515 W Commonwealth Ave,Fullerton,CA,92833,1050000,3,1.0,Fullerton,1289,9115,1949,1,815,,Active,,,https://www.redfin.com/CA/Fullerton/3515-W-Commonwealth-Ave-92833/home/3163093,TheMLS,23-312205,N,Y,33.8703049,-117.9743001
MLS Listing,,Condo/Co-op,2294 Via Puerta Unit P,Laguna Woods,CA,92637,468800,2,2.0,LW - Laguna Woods,1009,,1969,1,465,781,Active,,,https://www.redfin.com/CA/Laguna-Woods/2294-Via-Puerta-92637/unit-P/home/5287357,CRMLS,LG23171213,N,Y,33.6179232,-117.7182314
MLS Listing,,Single Family Residential,6 Bayfield,Irvine,CA,92614,1588000,4,3.0,WB - Woodbridge,1900,3302,1999,1,836,262,Active,,,https://www.redfin.com/CA/Irvine/6-Bayfield-92614/home/4697625,CRMLS,TR23160445,N,Y,33.6660642,-117.8057953
MLS Listing,,Townhouse,1237 Winslow,Newport Beach,CA,92660,2095000,4,3.0,N7 - West Bay - Santa Ana Heights,1858,,2021,1,1128,309,Active,,,https://www.redfin.com/CA/Newport-Beach/1237-Winslow-Ln-92660/home/187473988,CRMLS,NP23170693,N,Y,33.6305986,-117.9058457
MLS Listing,,Mobile/Manufactured Home,13061 Fairview St #18,Garden Grove,CA,92843,195000,2,2.0,"72 - Orange & Garden Grove, E of Harbor, N of 22 F",960,,2023,1,203,,Active,,,https://www.redfin.com/CA/Garden-Grove/13061-Fairview-St-92843/unit-18/home/187204365,CRMLS,OC23160851,N,Y,33.7731009,-117.9038718
MLS Listing,,Mobile/Manufactured Home,13061 Fairview St #23,Garden Grove,CA,92843,187900,2,2.0,"72 - Orange & Garden Grove, E of Harbor, N of 22 F",833,,2023,1,226,,Active,,,https://www.redfin.com/CA/Garden-Grove/13061-Fairview-St-92843/unit-23/home/25670655,CRMLS,OC23160976,N,Y,33.7731011,-117.9038718
MLS Listing,,Condo/Co-op,3273 San Amadeo Unit D,Laguna Woods,CA,92637,420000,2,2.0,LW - Laguna Woods,1045,,1973,1,402,780,Active,,,https://www.redfin.com/CA/Laguna-Woods/3273-San-Amadeo-92637/unit-D/home/5354396,CRMLS,OC23167203,N,Y,33.6040563,-117.7449283
MLS Listing,,Condo/Co-op,1305 N Kraemer Blvd #27,Placentia,CA,92870,510000,2,1.0,84 - Placentia,884,,1971,1,577,350,Active,,,https://www.redfin.com/CA/Placentia/1305-N-Kraemer-Blvd-92870/unit-27/home/5317150,CRMLS,PW23029917,N,Y,33.8852408,-117.8631994
MLS Listing,,Multi-Family (2-4 Unit),2932 Camino Capistrano,San Clemente,CA,92672,850000,3,3.0,SC - San Clemente Central,1546,,1975,2,550,445,Active,,,https://www.redfin.com/CA/San-Clemente/2932-Camino-Capistrano-92672/home/185805071,CRMLS,IG23174020,N,Y,33.4455592,-117.6468347
MLS Listing,,Single Family Residential,706 S Bruce St,Anaheim,CA,92804,829888,4,2.0,79 - Anaheim West of Harbor,1817,6557,1957,2,457,,Active,,,https://www.redfin.com/CA/Anaheim/706-S-Bruce-St-92804/home/3588721,CRMLS,PW23174017,N,Y,33.8222588,-117.9682633
MLS Listing,,Multi-Family (2-4 Unit),4751 Grace Ave,Cypress,CA,90630,1910685,6,6.0,80 - Cypress North of Katella,2998,19166,1980,2,637,,Active,,,https://www.redfin.com/CA/Cypress/4751-Grace-Ave-90630/home/187527995,CRMLS,PW23173997,N,Y,33.8373012,-118.0501281
MLS Listing,,Condo/Co-op,2048 Via Mariposa Unit C,Laguna Woods,CA,92637,659000,2,2.0,LW - Laguna Woods,1075,,1968,2,613,644,Active,September-23-2023 01:00 PM,September-23-2023 04:00 PM,https://www.redfin.com/CA/Laguna-Woods/2048-Via-Mariposa-E-92637/unit-C/home/103657470,CRMLS,OC23173618,N,Y,33.6146953,-117.7139386
MLS Listing,,Condo/Co-op,17 Reese Crk,Ladera Ranch,CA,92694,945000,3,3.5,LD - Ladera Ranch,1736,1736,2004,2,544,351,Active,September-23-2023 12:30 PM,September-23-2023 02:30 PM,https://www.redfin.com/CA/Ladera-Ranch/17-Reese-Crk-92694/home/5948154,CRMLS,PW23173944,N,Y,33.5414499,-117.6459474
MLS Listing,,Townhouse,2371 Elden Ave Unit B,Costa Mesa,CA,92627,950000,2,2.5,C5 - East Costa Mesa,1289,2268,1988,2,737,70,Active,,,https://www.redfin.com/CA/Costa-Mesa/2371-Elden-Ave-92627/unit-B/home/4637458,CRMLS,OC23173881,N,Y,33.655477,-117.9020709
MLS Listing,,Condo/Co-op,1152 N West St #22,Anaheim,CA,92801,460000,2,2.0,79 - Anaheim West of Harbor,920,,1964,2,500,240,Active,,,https://www.redfin.com/CA/Anaheim/1152-N-West-St-92801/unit-22/home/5361019,CRMLS,PW23169952,N,Y,33.849752,-117.9320152
MLS Listing,,Mobile/Manufactured Home,8200 Bolsa Ave #183,Midway City,CA,92655,145000,3,2.0,"67 - S of Bolsa, E of Beach",1300,,1971,2,112,,Active,,,https://www.redfin.com/CA/Midway-City/8200-Bolsa-Ave-92655/unit-183/home/21937519,CRMLS,PW23173849,N,Y,33.7419774,-117.9858544
MLS Listing,,Condo/Co-op,34 Elksford Ave #3,Irvine,CA,92604,650000,2,2.0,EC - El Camino Real,1078,,1971,2,603,350,Active,,,https://www.redfin.com/CA/Irvine/34-Elksford-Ave-92604/unit-3/home/5329702,CRMLS,SB23173831,N,Y,33.6919558,-117.7751959
MLS Listing,,Multi-Family (2-4 Unit),8582 Emerson Cir,Garden Grove,CA,92844,1850000,9,7.0,"65 - N of Blsa, S of GGrv, E of Bch, W of Brookhrs",4412,7841,1964,2,419,,Active,,,https://www.redfin.com/CA/Garden-Grove/8582-Emerson-Cir-92844/home/179561352,CRMLS,PW23173950,N,Y,33.7722947,-117.9795847
MLS Listing,,Single Family Residential,51 Gainsboro,Irvine,CA,92620,2988000,5,5.5,STG - Stonegate,4378,4583,2018,2,683,118,Active,,,https://www.redfin.com/CA/Irvine/51-Gainsboro-92620/home/51684840,CRMLS,OC23173923,N,Y,33.7082147,-117.7354818
MLS Listing,,Condo/Co-op,2295 Via Puerta Unit B,Laguna Woods,CA,92637,428800,2,2.0,LW - Laguna Woods,1009,871,1969,2,425,780,Active,,,https://www.redfin.com/CA/Laguna-Woods/2295-Via-Puerta-92637/unit-B/home/5287369,CRMLS,OC23173904,N,Y,33.6182374,-117.718724
MLS Listing,,Single Family Residential,45 Beach View Ave,Dana Point,CA,92629,14395000,5,5.5,MB - Monarch Beach,6300,9932,2013,2,2285,1550,Active,,,https://www.redfin.com/CA/Dana-Point/45-Beach-View-Ave-92629/home/7204298,CRMLS,NP23167491,N,Y,33.4686078,-117.7157571
MLS Listing,,Single Family Residential,1325 S Rosewood Ave,Santa Ana,CA,92707,719900,3,1.0,69 - Santa Ana South of First,916,6250,1948,2,786,,Active,,,https://www.redfin.com/CA/Santa-Ana/1325-S-Rosewood-Ave-92707/home/3076900,CRMLS,PW23173897,N,Y,33.7298307,-117.8815756
MLS Listing,,Single Family Residential,885 Senate St,Costa Mesa,CA,92627,1599999,4,3.0,C2 - Southwest Costa Mesa,1760,6600,1958,2,909,,Active,,,https://www.redfin.com/CA/Costa-Mesa/885-Senate-St-92627/home/4564312,CRMLS,OC23173839,N,Y,33.6543405,-117.9359071
MLS Listing,,Condo/Co-op,8933 Biscayne Ct Unit 221C,Huntington Beach,CA,92646,585000,2,2.0,14 - South Huntington Beach,1055,,1974,2,555,550,Active,September-23-2023 01:00 AM,September-23-2023 04:00 AM,https://www.redfin.com/CA/Huntington-Beach/8933-Biscayne-Ct-92646/unit-221C/home/179356473,CRMLS,OC23173771,N,Y,33.6607745,-117.9720604
MLS Listing,,Single Family Residential,17442 La Mesa Ln,Huntington Beach,CA,92641,1225000,4,2.0,699 - Not Defined,1845,7000,1965,2,664,,Active,,,https://www.redfin.com/CA/Huntington-Beach/17442-La-Mesa-Ln-92647/home/3543440,CRMLS,OC23170750,N,Y,33.7088587,-118.02216
MLS Listing,,Single Family Residential,2573 Elden Ave Unit A,Costa Mesa,CA,92627,1615000,4,3.5,East Costa Mesa,2303,20000,2023,2,701,,Active,,,https://www.redfin.com/CA/Costa-Mesa/2573-Elden-Ave-92627/unit-A/home/169471964,TheMLS,23-310289,N,Y,33.6616186,-117.8965668
MLS Listing,,Single Family Residential,2573 Elden Ave Unit C,Costa Mesa,CA,92627,1595000,4,3.5,East Costa Mesa,2303,20000,2023,2,693,,Active,,,https://www.redfin.com/CA/Costa-Mesa/2573-Elden-Ave-92627/unit-C/home/186302400,TheMLS,23-310293,N,Y,33.6616186,-117.8965668
MLS Listing,,Townhouse,4936 Argyle Dr,Buena Park,CA,90621,655000,4,2.5,82 - Buena Park,1560,1308,1964,2,420,230,Active,,,https://www.redfin.com/CA/Buena-Park/4936-Argyle-Dr-90621/home/3286682,CRMLS,CV23173803,N,Y,33.889074,-117.990143
MLS Listing,,Single Family Residential,5 Cerro Ct,Rancho Mission Viejo,CA,92694,1650000,3,2.5,ESEN - Esencia,2395,5344,2016,2,689,338,Active,September-23-2023 01:00 PM,September-23-2023 04:00 PM,https://www.redfin.com/CA/Rancho-Mission-Viejo/5-Cerro-Ct-92694/home/112727081,CRMLS,OC23172910,N,Y,33.5374439,-117.60179
MLS Listing,,Single Family Residential,375 Trabuco Canyon Way,Brea,CA,92821,1400000,5,3.0,86 - Brea,2972,4675,1980,2,471,,Active,September-23-2023 01:00 PM,September-23-2023 04:00 PM,https://www.redfin.com/CA/Brea/375-Trabuco-Canyon-Way-92821/home/4140633,CRMLS,PW23171507,N,Y,33.9340973,-117.8900673
MLS Listing,,Single Family Residential,9 Madeline Ct,Coto De Caza,CA,92679,2288888,4,4.5,CC - Coto De Caza,4055,8776,2000,2,564,270,Active,,,https://www.redfin.com/CA/Coto-de-Caza/9-Madeline-Ct-92679/home/5779018,CRMLS,OC23147566,N,Y,33.569388,-117.5827345
MLS Listing,,Condo/Co-op,601 Lido Park Dr Unit 6D,Newport Beach,CA,92663,4500000,2,2.0,N8 - West Newport - Lido,1523,,1972,2,2955,1700,Active,,,https://www.redfin.com/CA/Newport-Beach/601-Lido-Park-Dr-92663/unit-6D/home/5347335,CRMLS,NP23164674,N,Y,33.6158164,-117.9266851
MLS Listing,,Condo/Co-op,150 Chandon,Laguna Niguel,CA,92677,699000,2,2.0,LNSLT - Salt Creek,1078,,1989,2,648,540,Active,,,https://www.redfin.com/CA/Laguna-Niguel/150-Chandon-92677/home/5388192,CRMLS,OC23172625,N,Y,33.5239795,-117.6891794
MLS Listing,,Single Family Residential,29232 Kestrel Ln,Laguna Niguel,CA,92677,2585000,5,4.0,699 - Not Defined,3098,6600,1978,2,834,113,Active,September-21-2023 12:00 AM,September-21-2023 11:59 PM,https://www.redfin.com/CA/Laguna-Niguel/29232-Kestrel-Ln-92677/home/4924096,CRMLS,OC23167322,N,Y,33.5384004,-117.7092734
MLS Listing,,Single Family Residential,231 Highland Ct,La Habra,CA,90631,799900,3,2.0,87 - La Habra,1360,7590,1955,2,588,,Active,,,https://www.redfin.com/CA/La-Habra/231-Highland-Ct-90631/home/3101480,CRMLS,PW23160221,N,Y,33.9407539,-117.9443723
MLS Listing,,Single Family Residential,10212 Virgil Cir,Cypress,CA,90630,1350000,5,2.5,80 - Cypress North of Katella,1659,9720,1964,2,814,,Active,,,https://www.redfin.com/CA/Cypress/10212-Virgil-Cir-90630/home/3978359,CRMLS,PW23173602,N,Y,33.8136885,-118.0566307
MLS Listing,,Single Family Residential,1880 N El Camino Real Unit 48-49,San Clemente,CA,92672,7480000,5,6.0,SN - San Clemente North,4500,6399,2012,2,1662,1400,Active,,,https://www.redfin.com/CA/San-Clemente/1880-N-El-Camino-Real-92672/unit-48-49/home/179405739,CRMLS,OC23172674,N,Y,33.4323228,-117.6337402
MLS Listing,,Single Family Residential,2132 Seville Ave,Newport Beach,CA,92661,6725000,4,4.5,NP - Balboa Peninsula,3212,2868,2021,2,2094,,Active,,,https://www.redfin.com/CA/Newport-Beach/2132-Seville-Ave-92661/home/3241545,CRMLS,OC23172092,N,Y,33.5973291,-117.8831786
MLS Listing,,Single Family Residential,609 W Bay Ave,Newport Beach,CA,92661,2999000,4,3.5,NP - Balboa Peninsula,1983,2100,1978,2,1512,,Active,,,https://www.redfin.com/CA/Newport-Beach/609-W-Bay-Ave-92661/home/3236709,CRMLS,OC23171784,N,Y,33.6046687,-117.9080796
MLS Listing,,Single Family Residential,23 Torosa,Lake Forest,CA,92630,1650000,4,3.0,BK - Baker Ranch,2121,3484,2017,2,778,236,Active,,,https://www.redfin.com/CA/Lake-Forest/23-Torosa-92630/home/143909802,CRMLS,OC23172008,N,Y,33.6758112,-117.6818957
MLS Listing,,Condo/Co-op,32 Mira Las Olas,San Clemente,CA,92673,949000,3,2.0,SN - San Clemente North,1512,,2014,2,628,297,Active,,,https://www.redfin.com/CA/San-Clemente/32-Mira-Las-Olas-92673/home/5525995,CRMLS,OC23171393,N,Y,33.4604724,-117.6397027
MLS Listing,,Condo/Co-op,109 Tubeflower,Irvine,CA,92618,1180000,3,2.5,CV - Cypress Village,1410,,2017,2,837,345,Active,,,https://www.redfin.com/CA/Irvine/109-Tubeflower-92618/home/167403925,CRMLS,TR23165316,N,Y,33.6808909,-117.7446618
MLS Listing,,Single Family Residential,16361 Arlington Ln,Huntington Beach,CA,92649,999999,3,1.5,17 - Northwest Huntington Beach,1127,6201,1959,2,887,,Active,September-23-2023 12:00 PM,September-23-2023 04:00 PM,https://www.redfin.com/CA/Huntington-Beach/16361-Arlington-Ln-92649/home/3756396,CRMLS,OC23167134,N,Y,33.7243053,-118.0354314
MLS Listing,,Single Family Residential,20485 Via Habana,Yorba Linda,CA,92887,1399000,4,3.0,85 - Yorba Linda,2769,9720,1990,2,505,117,Active,,,https://www.redfin.com/CA/Yorba-Linda/20485-Via-Habana-92887/home/4257954,CRMLS,PW23168882,N,Y,33.8773902,-117.7772151
MLS Listing,,Condo/Co-op,19431 Rue De Valore Unit 40H,Lake Forest,CA,92610,530000,1,1.0,FH - Foothill Ranch,936,,1990,2,566,561,Active,,,https://www.redfin.com/CA/Foothill-Ranch/19431-Rue-de-Valore-92610/unit-40H/home/7212575,CRMLS,IV23170945,N,Y,33.6802489,-117.6533394
MLS Listing,,Condo/Co-op,75 Mira Mesa,Rancho Santa Margarita,CA,92688,959900,3,2.5,R1 - Rancho Santa Margarita North,1814,,1992,2,529,510,Active,September-24-2023 01:00 PM,September-24-2023 04:00 PM,https://www.redfin.com/CA/Rancho-Santa-Margarita/75-Mira-Mesa-92688/home/5232290,CRMLS,OC23161350,N,Y,33.6562948,-117.6115569
MLS Listing,,Townhouse,1 Agave Ct,Ladera Ranch,CA,92694,769999,2,2.5,LD - Ladera Ranch,1406,1406,2003,2,548,576,Active,September-23-2023 01:30 PM,September-23-2023 03:00 PM,https://www.redfin.com/CA/Ladera-Ranch/1-Agave-Ct-92694/home/5916399,CRMLS,OC23169793,N,Y,33.5503003,-117.6349896
MLS Listing,,Single Family Residential,13 Via Fontibre,San Clemente,CA,92673,1895000,4,4.0,TL - Talega,2941,5837,2004,2,644,255,Active,,,https://www.redfin.com/CA/San-Clemente/13-Via-Fontibre-92673/home/5950790,CRMLS,OC23173186,N,Y,33.48166526,-117.581901
MLS Listing,,Condo/Co-op,24055 Paseo Del Lago #1156,Laguna Woods,CA,92637,18000,0,1.0,LW - Laguna Woods,500,500,1974,3,36,2503,Active,,,https://www.redfin.com/CA/Laguna-Woods/24055-Paseo-del-Lago-92637/unit-1156/home/5371916,CRMLS,OC23173685,N,Y,33.6138057,-117.744183
MLS Listing,,Single Family Residential,109 Sculpture,Irvine,CA,92618,2098888,5,5.0,GP - Great Park,3000,5500,2018,3,700,235,Active,,,https://www.redfin.com/CA/Irvine/109-Sculpture-92618/home/169483558,CRMLS,OC23173624,N,Y,33.6802538,-117.7191707
MLS Listing,,Condo/Co-op,777 Stone Harbor Cir #42,La Habra,CA,90631,625000,3,2.0,87 - La Habra,1166,,1984,3,536,390,Active,,,https://www.redfin.com/CA/La-Habra/777-Stone-Harbor-Cir-90631/unit-42/home/5649092,CRMLS,OC23173020,N,Y,33.923415,-117.95117
MLS Listing,,Single Family Residential,428 Cabrillo Ter,Corona Del Mar,CA,92625,2600000,3,2.0,CS - Corona Del Mar - Spyglass,1412,6384,1954,3,1841,13,Active,,,https://www.redfin.com/CA/Corona-del-Mar/428-Cabrillo-Ter-92625/home/4730557,CRMLS,PW23173554,N,Y,33.5943841,-117.8629318
MLS Listing,,Single Family Residential,5141 Kingscross Rd,Westminster,CA,92683,825000,4,3.0,"58 - Westminster North of Rancho, S of 405",1643,2701,1972,3,502,325,Active,,,https://www.redfin.com/CA/Westminster/5141-Kingscross-Rd-92683/home/3892313,CRMLS,OC23172734,N,Y,33.757564,-118.0401196
MLS Listing,,Single Family Residential,141 El Levante,San Clemente,CA,92672,2195000,3,2.5,SC - San Clemente Central,3317,9000,1949,3,662,,Active,,,https://www.redfin.com/CA/San-Clemente/141-El-Levante-92672/home/3268872,CRMLS,OC23171416,N,Y,33.4320082,-117.6097898
MLS Listing,,Single Family Residential,26631 Granvia Dr,Mission Viejo,CA,92691,1249000,4,2.0,MC - Mission Viejo Central,1537,8025,1966,3,813,,Active,,,https://www.redfin.com/CA/Mission-Viejo/26631-Granvia-Dr-92691/home/5036843,CRMLS,PW23170293,N,Y,33.6012867,-117.6655657
MLS Listing,,Single Family Residential,10362 Cowan Heights Dr,North Tustin,CA,92705,2185000,3,3.0,NTS - North Tustin,3000,22800,1966,3,728,,Active,,,https://www.redfin.com/CA/Santa-Ana/10362-Cowan-Heights-Dr-92705/home/4765962,CRMLS,PW23172151,N,Y,33.7713149,-117.7725658
MLS Listing,,Single Family Residential,1232 Bering St,Placentia,CA,92870,985000,5,2.5,84 - Placentia,1922,7566,1963,3,512,,Active,,,https://www.redfin.com/CA/Placentia/1232-Bering-St-92870/home/4218694,CRMLS,PW23168044,N,Y,33.8841719,-117.837903
MLS Listing,,Condo/Co-op,12 Parker St,Ladera Ranch,CA,92694,725000,2,2.0,LD - Ladera Ranch,1335,,2004,3,543,426,Active,,,https://www.redfin.com/CA/Ladera-Ranch/12-Parker-St-92694/home/5942955,CRMLS,OC23166911,N,Y,33.5522787,-117.6445999
MLS Listing,,Condo/Co-op,65 Whippoorwill Ln,Aliso Viejo,CA,92656,649000,2,2.0,AV - Aliso Viejo,849,2278,1990,3,764,446,Active,,,https://www.redfin.com/CA/Aliso-Viejo/65-Whippoorwill-Ln-92656/home/5611098,CRMLS,OC23173603,N,Y,33.599585,-117.7438636
MLS Listing,,Single Family Residential,62 Claudius Ct,Irvine,CA,92618,3699000,6,6.0,GP - Great Park,4821,7059,2018,3,767,389,Active,,,https://www.redfin.com/CA/Irvine/62-Claudius-Ct-92618/home/146420164,CRMLS,OC23172161,N,Y,33.6807054,-117.7100753
MLS Listing,,Single Family Residential,3212 Calle Grande,San Clemente,CA,92672,1749900,4,3.0,SN - San Clemente North,3029,6000,1981,3,578,115,Active,,,https://www.redfin.com/CA/San-Clemente/3212-Calle-Grande-Vis-92672/home/5004290,CRMLS,PW23172787,N,Y,33.4532441,-117.6488586
MLS Listing,,Condo/Co-op,36 Lakepines,Irvine,CA,92620,658000,1,1.0,NW - Northwood,835,1092,1977,3,788,467,Active,,,https://www.redfin.com/CA/Irvine/36-Lakepines-92620/home/4787870,CRMLS,OC23173581,N,Y,33.7155254,-117.7593182
MLS Listing,,Single Family Residential,6932 Chapman Ave,Garden Grove,CA,92845,1180000,4,2.0,46 - Eastgate,1913,11500,1961,3,617,,Active,,,https://www.redfin.com/CA/Garden-Grove/6932-Chapman-Ave-92845/home/3617171,CRMLS,OC23169627,N,Y,33.7879207,-118.0119429
MLS Listing,,Single Family Residential,2375 Mesa Verde,Fullerton,CA,92833,1799000,5,5.0,83 - Fullerton,3205,21000,1973,3,561,,Active,,,https://www.redfin.com/CA/Fullerton/2375-Mesa-Verde-92833/home/4091811,CRMLS,PW23171838,N,Y,33.8977157,-117.9440697
MLS Listing,,Single Family Residential,8234 Baldwin Cir,Buena Park,CA,90621,850000,3,2.5,82 - Buena Park,1854,3268,1966,3,458,180,Active,,,https://www.redfin.com/CA/Buena-Park/8234-Baldwin-Cir-90621/home/3288479,CRMLS,PW23171837,N,Y,33.8808511,-117.9899913
MLS Listing,,Condo/Co-op,5427 Calle Carmenita Unit A,Laguna Woods,CA,92637,1675000,3,2.0,LW - Laguna Woods,2022,2022,1977,3,828,781,Active,,,https://www.redfin.com/CA/Laguna-Woods/5427-Calle-Carmenita-92637/unit-A/home/5469199,CRMLS,OC23173558,N,Y,33.6093326,-117.7404028
MLS Listing,,Single Family Residential,28 Blue Jay Dr,Aliso Viejo,CA,92656,1750000,4,3.0,AV - Aliso Viejo,2240,5472,1994,3,781,121,Active,,,https://www.redfin.com/CA/Aliso-Viejo/28-Blue-Jay-Dr-92656/home/4855850,CRMLS,OC23167948,N,Y,33.5962714,-117.7325954
MLS Listing,,Single Family Residential,3996 Myra Ave,Los Alamitos,CA,90720,1595000,5,2.5,52 - Los Alamitos,2800,7254,1966,3,570,,Active,,,https://www.redfin.com/CA/Los-Alamitos/3996-Myra-Ave-90720/home/3977397,CRMLS,PW23121625,N,Y,33.8144607,-118.0634345
MLS Listing,,Single Family Residential,1831 E Orange Grove Ave,Orange,CA,92867,860000,3,2.0,"75 - Orange, Orange Park Acres E of 55",1313,5920,1955,3,655,,Active,,,https://www.redfin.com/CA/Orange/1831-E-Orange-Grove-Ave-92867/home/4402901,CRMLS,MB23172856,N,Y,33.7967752,-117.8340091
MLS Listing,,Multi-Family (2-4 Unit),4908 Seashore Dr,Newport Beach,CA,92663,3995000,5,2.0,N8 - West Newport - Lido,2584,3289,1963,3,1546,,Active,,,https://www.redfin.com/CA/Newport-Beach/4908-Seashore-Dr-92663/home/4582322,CRMLS,NP23172528,N,Y,33.6221336,-117.9419527
MLS Listing,,Condo/Co-op,13701 Annandale Dr  M1  14i,Seal Beach,CA,90740,243000,1,1.0,1A - Seal Beach,700,700,1962,3,347,432,Active,,,https://www.redfin.com/CA/Seal-Beach/13701-Annandale-Dr-90740/unit-14i/home/143851851,CRMLS,PW23160198,N,Y,33.764015,-118.0795066
MLS Listing,,Single Family Residential,28 Bonita,Lake Forest,CA,92610,1250000,4,2.5,FH - Foothill Ranch,2118,3773,1990,3,590,94,Active,September-22-2023 04:00 PM,September-22-2023 08:00 PM,https://www.redfin.com/CA/Foothill-Ranch/28-Bonita-Vis-92610/home/4797545,CRMLS,OC23173519,N,Y,33.68562,-117.6660583
MLS Listing,,Condo/Co-op,1818 W Oceanfront Unit 1 & 2,Newport Beach,CA,92663,5495000,6,4.5,NP - Balboa Peninsula,3405,3300,1986,3,1614,,Active,,,https://www.redfin.com/CA/Newport-Beach/1818-W-Oceanfront-92663/unit-1-2/home/187523618,CRMLS,PW23170751,N,Y,33.6072459,-117.9260573
MLS Listing,,Condo/Co-op,35 Salvatore,Ladera Ranch,CA,92694,1249000,3,3.5,LD - Ladera Ranch,2190,,2005,3,570,1003,Active,,,https://www.redfin.com/CA/Mission-Viejo/35-Salvatore-92694/home/5978596,CRMLS,OC23172988,N,Y,33.54068,-117.635342
MLS Listing,,Condo/Co-op,1533 Merrion Way 2-26C,Seal Beach,CA,90740,343000,2,1.0,1A - Seal Beach,850,1100,1962,3,404,432,Active,,,https://www.redfin.com/CA/Seal-Beach/1533-Merion-Way-90740/home/3424397,CRMLS,PW23171545,N,Y,33.7625909,-118.0863428
MLS Listing,,Single Family Residential,3335 Calle Del Sol,Brea,CA,92823,1300000,3,3.0,86 - Brea,2162,,2017,3,601,399,Active,,,https://www.redfin.com/CA/Brea/3335-Calle-del-Sol-92823/home/160367003,CRMLS,PW23172634,N,Y,33.9152644,-117.8474668
MLS Listing,,Townhouse,31256 Calle San Juan Unit 3C,San Juan Capistrano,CA,92675,455000,2,1.0,MA - Mission Area,897,897,1971,3,507,315,Active,,,https://www.redfin.com/CA/San-Juan-Capistrano/31256-Calle-San-Juan-92675/unit-3C/home/5317384,CRMLS,OC23165345,N,Y,33.5092359,-117.6669646
MLS Listing,,Single Family Residential,28 Seawatch,Newport Coast,CA,92657,17888888,5,4.5,N26 - Newport Coast,5529,9489,2016,3,3235,485,Active,,,https://www.redfin.com/CA/Newport-Coast/28-Seawatch-92657/home/5927607,CRMLS,OC23159778,N,Y,33.5947699,-117.8139726
MLS Listing,,Condo/Co-op,12700 Newport Ave #16,Tustin,CA,92780,540000,2,2.0,71 - Tustin,1241,,1969,3,435,542,Active,,,https://www.redfin.com/CA/Tustin/12700-Newport-Ave-92780/unit-16/home/5355296,CRMLS,OC23173435,N,Y,33.7520368,-117.8067909
MLS Listing,,Multi-Family (2-4 Unit),517 35th St,Newport Beach,CA,92663,2885000,6,4.0,N8 - West Newport - Lido,2900,2849,1972,3,995,,Active,,,https://www.redfin.com/CA/Newport-Beach/517-35th-St-92663/home/4571080,CRMLS,NP23171117,N,Y,33.618553,-117.9311935
MLS Listing,,Single Family Residential,9 Pacific Crst,Laguna Niguel,CA,92677,2388000,4,3.0,LNSLT - Salt Creek,2748,6000,1988,3,869,227,Active,,,https://www.redfin.com/CA/Laguna-Niguel/9-Pacific-Crst-92677/home/4969294,CRMLS,OC23156542,N,Y,33.4917396,-117.6922077
MLS Listing,,Condo/Co-op,85 Smokestone #9,Irvine,CA,92614,604000,1,1.0,WB - Woodbridge,731,,1980,3,826,432,Active,September-23-2023 01:00 AM,September-23-2023 04:00 AM,https://www.redfin.com/CA/Irvine/85-Smokestone-92614/unit-9/home/5573435,CRMLS,PW23173408,N,Y,33.6751914,-117.8071918
MLS Listing,,Single Family Residential,1408 W Glen Dr,Anaheim,CA,92801,930000,3,2.0,699 - Not Defined,1771,10070,1954,3,525,,Active,,,https://www.redfin.com/CA/Anaheim/1408-W-Glen-Dr-92801/home/4054152,CRMLS,DW23173407,N,Y,33.8478011,-117.9375552
MLS Listing,,Single Family Residential,24935 Rollingwood,Lake Forest,CA,92630,1849900,5,3.0,LS - Lake Forest South,2611,8979,1970,3,709,200,Active,,,https://www.redfin.com/CA/Lake-Forest/24935-Rollingwood-Rd-92630/home/4820397,CRMLS,OC23171729,N,Y,33.6360696,-117.6952806
MLS Listing,,Mobile/Manufactured Home,10550 Western Ave SPACE 1,Stanton,CA,90680,179900,3,2.0,"61 - N of Gar Grv, S Of Ball, E of Knott, W of Dal",1440,,1971,3,125,,Active,,,https://www.redfin.com/CA/Stanton/10550-Western-Ave-90680/unit-1/home/5123832,CRMLS,OC23172519,N,Y,33.8067335,-117.9972221
MLS Listing,,Single Family Residential,33 Coppercrest,Aliso Viejo,CA,92656,1425000,4,2.5,AV - Aliso Viejo,2040,4560,1994,3,699,145,Active,,,https://www.redfin.com/CA/Aliso-Viejo/33-Coppercrest-92656/home/4856060,CRMLS,OC23171869,N,Y,33.5927629,-117.7370853
MLS Listing,,Mobile/Manufactured Home,24922 Muirlands Blvd #116,Lake Forest,CA,92630,540000,3,2.0,LN - Lake Forest North,1700,4990,1996,3,318,970,Active,,,https://www.redfin.com/CA/Lake-Forest/24922-Muirlands-Blvd-92630/unit-116/home/5141436,CRMLS,PT23173396,N,Y,33.6191143,-117.6953201
MLS Listing,,Single Family Residential,20670 Via Augusto,Yorba Linda,CA,92887,1550000,4,3.0,85 - Yorba Linda,2796,5664,1989,3,554,104,Active,,,https://www.redfin.com/CA/Yorba-Linda/20670-Via-Augusto-92887/home/4259755,CRMLS,OC23160399,N,Y,33.8776582,-117.7735192
MLS Listing,,Single Family Residential,1048 Fairbrook Ln,Santa Ana,CA,92706,1050000,4,2.0,70 - Santa Ana North of First,1382,7000,1964,3,760,,Active,,,https://www.redfin.com/CA/Santa-Ana/1048-Fairbrook-Ln-92706/home/3050403,CRMLS,PW23173318,N,Y,33.7772607,-117.8809837
MLS Listing,,Single Family Residential,2920 Hawks Pointe Dr,Fullerton,CA,92833,1750000,4,2.5,83 - Fullerton,3000,6865,2003,3,583,290,Active,,,https://www.redfin.com/CA/Fullerton/2920-Hawks-Pointe-Dr-92833/home/5898402,CRMLS,OC23173244,N,Y,33.9011842,-117.9808882
MLS Listing,,Single Family Residential,27346 Betanzos,Mission Viejo,CA,92692,1375000,4,2.5,MS - Mission Viejo South,2525,5000,1983,3,545,130,Active,,,https://www.redfin.com/CA/Mission-Viejo/27346-Betanzos-92692/home/5029345,CRMLS,OC23166504,N,Y,33.5829693,-117.6534559
MLS Listing,,Single Family Residential,177 Monarch Bay Dr,Dana Point,CA,92629,8250000,0,,MB - Monarch Beach,600,21750,1969,3,13750,,Active,,,https://www.redfin.com/CA/Dana-Point/177-Monarch-Bay-Dr-92629/home/4954740,CRMLS,OC23173217,N,Y,33.4870567,-117.7303275
MLS Listing,,Multi-Family (2-4 Unit),231 S Laxore St,Anaheim,CA,92804,2200000,9,8.0,"61 - N of Gar Grv, S Of Ball, E of Knott, W of Dal",4040,13068,1963,3,545,,Active,,,https://www.redfin.com/CA/Anaheim/231-S-Laxore-St-92804/home/3585687,CRMLS,RS23173254,N,Y,33.8286576,-117.9920508
MLS Listing,,Condo/Co-op,6105 Salem Rd #277,Yorba Linda,CA,92887,525000,2,2.0,85 - Yorba Linda,1080,,1986,3,486,561,Active,,,https://www.redfin.com/CA/Yorba-Linda/6105-Salem-Rd-92887/unit-277/home/5531989,CRMLS,PW23173050,N,Y,33.872438,-117.722703
MLS Listing,,Single Family Residential,1006 S Courtney Ave,Fullerton,CA,92833,799000,3,2.0,83 - Fullerton,1196,6480,1954,3,668,,Active,,,https://www.redfin.com/CA/Fullerton/1006-S-Courtney-Ave-92833/home/3314556,CRMLS,IG23173235,N,Y,33.8605164,-117.9634473
MLS Listing,,Mobile/Manufactured Home,3424 W Washington Ave #401,Santa Ana,CA,92703,255000,4,2.0,70 - Santa Ana North of First,1305,,2012,3,195,,Active,,,https://www.redfin.com/CA/Santa-Ana/3424-W-Washington-Ave-92703/unit-401/home/187520680,CRMLS,OC23173292,N,Y,33.7572382,-117.9146396
MLS Listing,,Single Family Residential,1880 N El Camino Real #47,San Clemente,CA,92624,2600000,2,2.0,SN - San Clemente North,1440,3142,1978,3,1806,700,Active,September-20-2023 10:00 AM,September-20-2023 01:00 PM,https://www.redfin.com/CA/San-Clemente/1880-N-El-Camino-Real-92672/unit-47/home/28932247,CRMLS,OC23169773,N,Y,33.4323228,-117.6337402
MLS Listing,,Single Family Residential,9692 Gisler Dr,Huntington Beach,CA,92646,2014990,4,3.5,14 - South Huntington Beach,2921,4750,2023,3,690,115,Active,,,https://www.redfin.com/CA/Huntington-Beach/9692-Gisler-Dr-92646/home/186817439,CRMLS,OC23173153,N,Y,33.6550044,-117.9587128
MLS Listing,,Single Family Residential,17431 Bramble Ct,Yorba Linda,CA,92886,1950000,5,3.0,VDV - Vista Del Verde,3340,9832,2002,3,584,,Active,,,https://www.redfin.com/CA/Yorba-Linda/17431-Bramble-Ct-92886/home/5850131,CRMLS,OC23164235,N,Y,33.9116148,-117.8291966
MLS Listing,,Single Family Residential,751 Candlewood St,Brea,CA,92821,900000,4,2.0,86 - Brea,1839,6000,1966,3,489,,Active,,,https://www.redfin.com/CA/Brea/751-Candlewood-St-92821/home/4142915,CRMLS,PW23172611,N,Y,33.9267494,-117.8853064
MLS Listing,,Single Family Residential,14911 Pinehaven Rd,Irvine,CA,92604,990000,3,2.0,EC - El Camino Real,1040,5100,1971,3,952,,Active,,,https://www.redfin.com/CA/Irvine/14911-Pinehaven-Rd-92604/home/4667158,CRMLS,NP23173197,N,Y,33.6926842,-117.7815257
MLS Listing,,Single Family Residential,9162 Russell Ave,Garden Grove,CA,92844,800000,3,1.0,"63 - Garden Grove S of Chapman, W of Euclid",1244,7424,1952,3,643,,Active,,,https://www.redfin.com/CA/Garden-Grove/9162-Russell-Ave-92844/home/3446049,CRMLS,PW23173103,N,Y,33.7687129,-117.9695531
MLS Listing,,Single Family Residential,19341 Pitcairn Ln,Huntington Beach,CA,92646,1250000,6,3.0,699 - Not Defined,2242,6000,1965,3,558,,Active,,,https://www.redfin.com/CA/Huntington-Beach/19341-Pitcairn-Ln-92646/home/3812176,CRMLS,PW23173226,N,Y,33.681789,-117.9488015
MLS Listing,,Single Family Residential,17594 Santa Elena Cir,Fountain Valley,CA,92708,1249000,4,2.0,16 - Fountain Valley / Northeast HB,1997,7185,1965,3,625,,Active,,,https://www.redfin.com/CA/Fountain-Valley/17594-Santa-Elena-Cir-92708/home/3860973,CRMLS,OC23157981,N,Y,33.707181,-117.9721038
MLS Listing,,Multi-Family (2-4 Unit),11421 Mac St,Garden Grove,CA,92841,2150000,9,6.0,"62 - Garden Grove N of Chapman, W of Euclid",4600,23814,1956,3,467,,Active,,,https://www.redfin.com/CA/Garden-Grove/11421-Mac-St-92841/home/3644457,CRMLS,OC23173206,N,Y,33.7967153,-117.9796762
MLS Listing,,Single Family Residential,6 Flat Iron Rd,Coto De Caza,CA,92679,2688000,5,5.5,CC - Coto De Caza,4764,8783,2002,3,564,364,Active,,,https://www.redfin.com/CA/Coto-de-Caza/6-Flat-Iron-Rd-92679/home/5822208,CRMLS,PV23173135,N,Y,33.5629826,-117.5931016
MLS Listing,,Single Family Residential,11382 Schrandt Dr,Garden Grove,CA,92840,900000,4,2.0,"62 - Garden Grove N of Chapman, W of Euclid",1800,9450,1973,3,500,,Active,,,https://www.redfin.com/CA/Garden-Grove/11382-Schrandt-Dr-92840/home/3396538,CRMLS,PW23147973,N,Y,33.7834055,-117.9342592
MLS Listing,,Single Family Residential,5339 Via Apolina,Yorba Linda,CA,92886,1600000,4,3.0,85 - Yorba Linda,2048,3500,1981,3,781,474,Active,,,https://www.redfin.com/CA/Yorba-Linda/5339-Via-Apolina-92886/home/4256855,CRMLS,OC23173209,N,Y,33.884233,-117.7814749
MLS Listing,,Single Family Residential,567 Avenida Adobe,San Clemente,CA,92672,850000,2,1.5,SE - San Clemente Southeast,1192,1199,1974,3,713,386,Active,,,https://www.redfin.com/CA/San-Clemente/567-Avenida-Adobe-92672/home/4992796,CRMLS,OC23173144,N,Y,33.4153958,-117.5906027
MLS Listing,,Single Family Residential,3232 Copa De Oro Dr,Rossmoor,CA,90720,1599000,4,2.0,51 - Rossmoor,1869,9102,1959,3,856,,Active,,,https://www.redfin.com/CA/Rossmoor/3232-Copa-de-Oro-Dr-90720/home/3370774,CRMLS,PW23167823,N,Y,33.7821725,-118.0770829
MLS Listing,,Condo/Co-op,1010 W Macarthur Blvd #92,Santa Ana,CA,92707,399888,1,1.0,69 - Santa Ana South of First,700,,1969,3,571,540,Active,,,https://www.redfin.com/CA/Santa-Ana/1010-W-MacArthur-Blvd-92707/unit-92/home/5566457,CRMLS,PW23173175,N,Y,33.6984147,-117.8818816
MLS Listing,,Condo/Co-op,2139 Ronda Granada Unit A,Laguna Woods,CA,92367,365000,2,2.0,LW - Laguna Woods,1057,1100,1968,3,345,645,Active,,,https://www.redfin.com/CA/Laguna-Woods/2139-Ronda-Granada-92637/unit-A/home/18973569,CRMLS,OC23172873,N,Y,33.6169497,-117.7139243
MLS Listing,,Single Family Residential,23375 Gondor Dr,Lake Forest,CA,92630,1199000,3,2.0,LS - Lake Forest South,1677,5270,1968,3,715,220,Active,,,https://www.redfin.com/CA/Lake-Forest/23375-Gondor-Dr-92630/home/4834297,CRMLS,OC23168962,N,Y,33.6232166,-117.7102815
MLS Listing,,Condo/Co-op,444 S Tustin St Unit J5,Orange,CA,92866,525000,2,1.0,"72 - Orange & Garden Grove, E of Harbor, N of 22 F",966,,1977,3,543,425,Active,,,https://www.redfin.com/CA/Orange/444-S-Tustin-St-92866/unit-J5/home/187517423,CRMLS,OC23173034,N,Y,33.7817393,-117.8371414
MLS Listing,,Townhouse,57 Pasto Rico,Rancho Santa Margarita,CA,92688,649900,2,2.5,R2 - Rancho Santa Margarita Central,1091,,1989,3,596,481,Active,,,https://www.redfin.com/CA/Rancho-Santa-Margarita/57-Pasto-Rico-92688/home/5486359,CRMLS,OC23170650,N,Y,33.6218516,-117.6156032
MLS Listing,,Single Family Residential,26482 Zoraida,Mission Viejo,CA,92691,875000,2,2.0,MS - Mission Viejo South,1739,2210,1976,3,503,440,Active,,,https://www.redfin.com/CA/Mission-Viejo/26482-Zoraida-92691/home/5019621,CRMLS,OC23170813,N,Y,33.5781253,-117.6639958
MLS Listing,,Single Family Residential,8352 Kingfisher Dr,Huntington Beach,CA,92646,1499500,4,3.0,699 - Not Defined,2200,6000,1967,3,682,,Active,,,https://www.redfin.com/CA/Huntington-Beach/8352-Kingfisher-Dr-92646/home/3783107,CRMLS,OC23172727,N,Y,33.6611725,-117.9822385
MLS Listing,,Single Family Residential,28142 Via Bonalde,Mission Viejo,CA,92692,739000,2,2.0,MC - Mission Viejo Central,1004,2677,1975,3,736,588,Active,,,https://www.redfin.com/CA/Mission-Viejo/28142-Via-Bonalde-92692/home/5068374,CRMLS,CV23173055,N,Y,33.6173545,-117.6397812
MLS Listing,,Single Family Residential,5 Estates Dr,Villa Park,CA,92861,2500000,5,6.0,73 - Villa Park,5583,17424,1988,3,448,,Active,,,https://www.redfin.com/CA/Villa-Park/5-Estates-Dr-92861/home/4344043,CRMLS,OC23171595,N,Y,33.8258839,-117.7953759
MLS Listing,,Mobile/Manufactured Home,29 Walnut Via,Anaheim,CA,92801,69000,2,2.0,699 - Not Defined,1229,,1968,3,56,,Active,,,https://www.redfin.com/CA/Anaheim/29-Walnut-Via-92801/home/187516035,CRMLS,SW23173082,N,Y,33.8615962,-117.9143503
MLS Listing,,Condo/Co-op,214 Via Robina #24,San Clemente,CA,92672,895000,2,2.0,SC - San Clemente Central,1050,,1970,3,852,365,Active,,,https://www.redfin.com/CA/San-Clemente/214-Via-Robina-92672/unit-24/home/5457900,CRMLS,OC23168029,N,Y,33.4239796,-117.606189
MLS Listing,,Single Family Residential,2797 Waxwing Cir,Costa Mesa,CA,92626,1299000,3,2.0,C1 - Mesa Verde,1891,6900,1972,3,687,,Active,,,https://www.redfin.com/CA/Costa-Mesa/2797-Waxwing-Cir-92626/home/3701896,CRMLS,PW23169765,N,Y,33.6723615,-117.9309199
MLS Listing,,Condo/Co-op,410 N Clark St Unit D,Orange,CA,92868,499500,2,1.0,OTO - Old Towne Orange,880,,1964,3,568,230,Active,,,https://www.redfin.com/CA/Orange/410-N-Clark-St-92868/unit-D/home/5236226,CRMLS,OC23170932,N,Y,33.7934668,-117.8609508
MLS Listing,,Single Family Residential,6341 Shawnee Rd,Westminster,CA,92683,799900,4,2.0,699 - Not Defined,1237,7210,1957,3,647,,Active,,,https://www.redfin.com/CA/Westminster/6341-Shawnee-Rd-92683/home/3914751,CRMLS,CV23172998,N,Y,33.7715995,-118.0191857
MLS Listing,,Single Family Residential,75 Limewood,Irvine,CA,92614,2828000,4,3.0,WB - Woodbridge,3076,7130,1985,3,919,91,Active,,,https://www.redfin.com/CA/Irvine/75-Limewood-92614/home/4697560,CRMLS,OC23173059,N,Y,33.6678329,-117.799515
MLS Listing,,Single Family Residential,8086 E Loftwood Ln,Orange,CA,92867,998880,3,2.5,"75 - Orange, Orange Park Acres E of 55",2169,4000,2004,3,461,244,Active,,,https://www.redfin.com/CA/Orange/8086-E-Loftwood-Ln-92867/home/5978415,CRMLS,OC23171714,N,Y,33.828792,-117.7663572
MLS Listing,,Single Family Residential,27045 Big Horn Mountain Way,Yorba Linda,CA,92887,2499999,5,4.5,85 - Yorba Linda,4776,31000,1993,3,523,,Active,,,https://www.redfin.com/CA/Yorba-Linda/27045-Big-Horn-Mountain-Way-92887/home/4167380,CRMLS,PW23171736,N,Y,33.8902933,-117.7078529
MLS Listing,,Single Family Residential,11622 Candy Ln,Garden Grove,CA,92840,1199999,4,4.0,"63 - Garden Grove S of Chapman, W of Euclid",1958,7252,1953,3,613,,Active,,,https://www.redfin.com/CA/Garden-Grove/11622-Candy-Ln-92840/home/3401578,CRMLS,PW23150918,N,Y,33.7897783,-117.9301863
MLS Listing,,Single Family Residential,20800 Circulo Bajo,Yorba Linda,CA,92887,1651000,3,2.0,85 - Yorba Linda,2041,16000,1984,3,809,,Active,,,https://www.redfin.com/CA/Yorba-Linda/20800-Circulo-Bajo-92887/home/4273327,CRMLS,PW23169723,N,Y,33.8845427,-117.7699777
MLS Listing,,Mobile/Manufactured Home,14851 Jeffrey Rd #352,Irvine,CA,92618,399800,3,2.0,699 - Not Defined,1500,,2008,3,267,,Active,,,https://www.redfin.com/CA/Irvine/14851-Jeffrey-Rd-92618/unit-352/home/21932193,CRMLS,OC23173022,N,Y,33.6866501,-117.7721689
MLS Listing,,Single Family Residential,29562 Palo Dr,Laguna Niguel,CA,92677,1190000,3,2.0,LNLAK - Lake Area,1727,6640,1972,3,689,,Active,,,https://www.redfin.com/CA/Laguna-Niguel/29562-Palo-Dr-92677/home/4879950,CRMLS,OC23173027,N,Y,33.5336054,-117.6853528
MLS Listing,,Single Family Residential,31852 Via Faisan,Coto De Caza,CA,92679,1749995,4,5.0,CC - Coto De Caza,3709,6000,1989,3,472,211,Active,,,https://www.redfin.com/CA/Trabuco-Canyon/31852-Via-Faisan-92679/home/5056075,CRMLS,NP23168197,N,Y,33.6180624,-117.5758725
MLS Listing,,Single Family Residential,26382 Avenida Deseo,Mission Viejo,CA,92691,1224999,3,2.0,MC - Mission Viejo Central,1360,8259,1969,3,901,26,Active,,,https://www.redfin.com/CA/Mission-Viejo/26382-Avenida-Deseo-92691/home/5079095,CRMLS,OC23172466,N,Y,33.6150783,-117.6698637
MLS Listing,,Mobile/Manufactured Home,5200 Irvine Blvd #77,Irvine,CA,92620,650000,2,2.0,NW - Northwood,1976,,1979,3,329,257,Active,,,https://www.redfin.com/CA/Irvine/5200-Irvine-Blvd-92620/unit-77/home/5976954,CRMLS,PW23172424,N,Y,33.7080452,-117.754305
MLS Listing,,Single Family Residential,2144 W Dogwood Ave,Anaheim,CA,92801,730000,3,1.0,699 - Not Defined,1000,5700,1953,3,730,,Active,,,https://www.redfin.com/CA/Anaheim/2144-W-Dogwood-Ave-92801/home/3334177,CRMLS,OC23171552,N,Y,33.845944,-117.9571867
MLS Listing,,Condo/Co-op,28951 Paseo Picasso,Mission Viejo,CA,92692,699900,2,2.0,MN - Mission Viejo North,1278,,1997,3,548,667,Active,,,https://www.redfin.com/CA/Mission-Viejo/28951-Paseo-Picasso-92692/home/5416632,CRMLS,OC23172839,N,Y,33.649789,-117.6257987
MLS Listing,,Single Family Residential,20 St Just Ave,Ladera Ranch,CA,92694,1775000,5,4.0,LD - Ladera Ranch,3068,4451,2004,3,579,259,Active,,,https://www.redfin.com/CA/Mission-Viejo/20-St-Just-Ave-92694/home/5905815,CRMLS,OC23172914,N,Y,33.5528684,-117.6417994
MLS Listing,,Multi-Family (2-4 Unit),205 Huntington St,Huntington Beach,CA,92648,3300000,7,4.0,15 - West Huntington Beach,3366,6615,1978,3,980,,Active,,,https://www.redfin.com/CA/Huntington-Beach/205-Huntington-St-92648/home/3145408,CRMLS,TR23172553,N,Y,33.6588129,-117.9953921
MLS Listing,,Condo/Co-op,19088 Grandview Ave #34,Yorba Linda,CA,92886,549999,2,2.0,85 - Yorba Linda,921,,1982,3,597,441,Active,,,https://www.redfin.com/CA/Yorba-Linda/19088-Grandview-Ave-92886/unit-34/home/5365026,CRMLS,CV23169226,N,Y,33.8735008,-117.7999791
MLS Listing,,Single Family Residential,3152 Country Club Dr,Costa Mesa,CA,92626,3300000,3,4.0,C1 - Mesa Verde,3390,9702,2019,3,973,,Active,,,https://www.redfin.com/CA/Costa-Mesa/3152-Country-Club-Dr-92626/home/3692808,CRMLS,PW23168010,N,Y,33.6856417,-117.9302312
MLS Listing,,Single Family Residential,2037 N Chouteau St,Orange,CA,92865,999999,4,2.0,699 - Not Defined,1805,8400,1961,3,554,,Active,,,https://www.redfin.com/CA/Orange/2037-N-Chouteau-St-92865/home/4348758,CRMLS,OC23171954,N,Y,33.8219488,-117.8448301
MLS Listing,,Single Family Residential,20780 Chateau Ave,Yorba Linda,CA,92886,1650000,3,2.5,85 - Yorba Linda,2534,11040,1983,3,651,,Active,,,https://www.redfin.com/CA/Yorba-Linda/20780-Chateau-Ave-92886/home/4268248,CRMLS,SW23167846,N,Y,33.9041651,-117.7705503
MLS Listing,,Condo/Co-op,70 Greenmoor #35,Irvine,CA,92614,725000,2,2.0,WB - Woodbridge,1002,,1984,3,724,430,Active,,,https://www.redfin.com/CA/Irvine/70-Greenmoor-92614/unit-35/home/5652796,CRMLS,PW23168816,N,Y,33.6649816,-117.7970836
MLS Listing,,Condo/Co-op,16118 Twinkle Cir,Huntington Beach,CA,92649,1262000,3,2.5,17 - Northwest Huntington Beach,1743,1760,1978,3,724,484,Active,,,https://www.redfin.com/CA/Huntington-Beach/16118-Twinkle-Cir-92649/home/3879709,CRMLS,OC23167881,N,Y,33.7281199,-118.070859
MLS Listing,,Condo/Co-op,3 Shadowleaf #36,Irvine,CA,92614,1035000,3,2.0,WB - Woodbridge,1144,,1985,3,905,321,Active,,,https://www.redfin.com/CA/Irvine/3-Shadowleaf-92614/unit-36/home/5250385,CRMLS,PW23170308,N,Y,33.6650936,-117.7941793
MLS Listing,,Single Family Residential,123 Avenida Mesita #9,San Clemente,CA,92673,1595000,5,3.5,699 - Not Defined,2950,,1979,3,541,359,Active,,,https://www.redfin.com/CA/San-Clemente/123-Avenida-Mesita-92673/unit-9/home/5520450,CRMLS,OC23170265,N,Y,33.4610928,-117.6409862
MLS Listing,,Single Family Residential,2966 Calle Grande,San Clemente,CA,92672,1650000,4,2.0,SN - San Clemente North,2350,6600,1964,3,702,39,Active,,,https://www.redfin.com/CA/San-Clemente/2966-Calle-Grande-Vis-92672/home/5003097,CRMLS,OC23170834,N,Y,33.449446,-117.6474722
MLS Listing,,Condo/Co-op,55 Alicante Aisle #62,Irvine,CA,92614,680000,2,2.0,WP - Westpark,865,,1989,3,786,352,Active,,,https://www.redfin.com/CA/Irvine/55-Alicante-Aisle-92614/unit-62/home/5587536,CRMLS,SB23172276,N,Y,33.685031,-117.8278585
MLS Listing,,Single Family Residential,18681 Alice Ln,Villa Park,CA,92861,2799000,4,2.5,73 - Villa Park,2183,43560,1963,3,1282,,Active,,,https://www.redfin.com/CA/Villa-Park/18681-Alice-Ln-92861/home/4342907,CRMLS,PW23170644,N,Y,33.8203933,-117.8059327
MLS Listing,,Single Family Residential,593 S Wellington Rd,Orange,CA,92869,1595000,5,4.5,"75 - Orange, Orange Park Acres E of 55",2503,8413,1962,3,637,,Active,,,https://www.redfin.com/CA/Orange/593-S-Wellington-Rd-92869/home/3422822,CRMLS,OC23157867,N,Y,33.7788486,-117.8186388
MLS Listing,,Single Family Residential,839 Darrell St,Costa Mesa,CA,92627,1049000,3,2.0,C2 - Southwest Costa Mesa,1017,6000,1956,3,1031,,Active,,,https://www.redfin.com/CA/Costa-Mesa/839-Darrell-St-92627/home/4564046,CRMLS,NP23147851,N,Y,33.6565599,-117.9339493
MLS Listing,,Single Family Residential,19425 Woodlands Dr,Huntington Beach,CA,92648,2995000,3,2.5,15 - West Huntington Beach,2653,7000,1984,3,1129,550,Active,,,https://www.redfin.com/CA/Huntington-Beach/19425-Woodlands-Dr-92648/home/3135741,CRMLS,OC23161253,N,Y,33.6795211,-118.0216964
MLS Listing,,Single Family Residential,500 Avenida Lorenzo,Newport Beach,CA,92660,1725000,3,2.0,NV - East Bluff - Harbor View,1669,2402,1964,3,1034,444,Active,,,https://www.redfin.com/CA/Newport-Beach/500-Avenida-Lorenzo-92660/home/4645547,CRMLS,NP23157921,N,Y,33.636938,-117.8796985
MLS Listing,,Single Family Residential,1617 Valley Ln,Fullerton,CA,92833,1450000,5,3.0,83 - Fullerton,2353,9500,1964,3,616,,Active,,,https://www.redfin.com/CA/Fullerton/1617-Valley-Ln-92833/home/4097084,CRMLS,PW23159749,N,Y,33.8901912,-117.9626778
MLS Listing,,Single Family Residential,7641 Anita Ln,Huntington Beach,CA,92647,1095000,4,2.0,17 - Northwest Huntington Beach,1389,6000,1963,3,788,,Active,,,https://www.redfin.com/CA/Huntington-Beach/7641-Anita-Ln-92647/home/3721726,CRMLS,PW23172083,N,Y,33.7257582,-117.9955065
MLS Listing,,Condo/Co-op,13860 Canoe Brook Dr Unit M-3 5C,Seal Beach,CA,90740,329900,1,1.0,1A - Seal Beach,800,,1961,3,412,497,Active,,,https://www.redfin.com/CA/Seal-Beach/13860-Canoe-Brook-Dr-90740/unit-5C/home/174980512,CRMLS,PW23172941,N,Y,33.7614927,-118.0915767
MLS Listing,,Single Family Residential,5201 Ivywood Dr,La Palma,CA,90623,1295000,5,2.5,81 - La Palma,2321,5044,1966,3,558,,Active,,,https://www.redfin.com/CA/La-Palma/5201-Ivywood-Dr-90623/home/4036552,CRMLS,PW23172666,N,Y,33.8470322,-118.0423484
MLS Listing,,Single Family Residential,34155 Calle La Primavera,Dana Point,CA,92629,2199000,3,2.5,LT - Lantern Village,1916,2750,1977,4,1148,,Active,,,https://www.redfin.com/CA/Dana-Point/34155-Calle-La-Primavera-92629/home/4986684,CRMLS,OC23169071,N,Y,33.4667775,-117.6891293
MLS Listing,,Single Family Residential,425 Augusta Ln,Placentia,CA,92870,1398000,5,3.0,84 - Placentia,3000,5844,1999,4,466,67,Active,,,https://www.redfin.com/CA/Placentia/425-Augusta-Ln-92870/home/4218659,CRMLS,PW23172478,N,Y,33.8723229,-117.8496997
MLS Listing,,Condo/Co-op,2385 Via Mariposa W Unit 2F,Laguna Woods,CA,92637,510000,2,2.0,LW - Laguna Woods,1199,,1969,4,425,803,Active,,,https://www.redfin.com/CA/Laguna-Woods/2385-Via-Mariposa-W-92637/unit-2F/home/5291575,CRMLS,OC23169565,N,Y,33.6133447,-117.7218549
MLS Listing,,Single Family Residential,1019 W 19th St,Santa Ana,CA,92706,1050000,3,2.0,70 - Santa Ana North of First,1541,6748,1950,4,681,,Active,,,https://www.redfin.com/CA/Santa-Ana/1019-W-19th-St-92706/home/4471714,CRMLS,PW23170025,N,Y,33.7619375,-117.879424
MLS Listing,,Single Family Residential,5201 Verner Dr,La Palma,CA,90623,990000,4,2.5,81 - La Palma,2118,5100,1970,4,467,,Active,,,https://www.redfin.com/CA/La-Palma/5201-Verner-Dr-90623/home/4018125,CRMLS,OC23149799,N,Y,33.8448089,-118.0423255
MLS Listing,,Condo/Co-op,25996 E Dana Blf E #54,Dana Point,CA,92624,2695000,3,2.5,Dana Point,1723,,1974,4,1564,625,Active,,,https://www.redfin.com/CA/Dana-Point/25996-Dana-Blf-E-92624/unit-54/home/5404371,SDMLS,230017884,N,Y,33.4616093,-117.6762672
MLS Listing,,Single Family Residential,308 Vista Baya,Costa Mesa,CA,92627,2995000,3,3.5,C5 - East Costa Mesa,3445,9343,1960,4,869,,Active,,,https://www.redfin.com/CA/Costa-Mesa/308-Vista-Baya-92627/home/4595741,CRMLS,OC23170774,N,Y,33.6487834,-117.8991936
MLS Listing,,Mobile/Manufactured Home,19350 Ward St #70,Huntington Beach,CA,92646,274900,3,2.0,699 - Not Defined,1566,,2023,4,176,,Active,,,https://www.redfin.com/CA/Huntington-Beach/19350-Ward-St-92646/unit-70/home/5828317,CRMLS,OC23172827,N,Y,33.681794,-117.944514
MLS Listing,,Single Family Residential,3332 Dorsey Dr,Santa Ana,CA,92704,789000,3,3.0,69 - Santa Ana South of First,1630,2989,1993,4,484,85,Active,,,https://www.redfin.com/CA/Santa-Ana/3332-Dorsey-Dr-92704/home/3744207,CRMLS,PW23166382,N,Y,33.7439081,-117.9138701
MLS Listing,,Single Family Residential,23435 Via Alondra,Coto De Caza,CA,92679,1799000,5,3.5,CC - Coto De Caza,2763,6000,1975,4,651,220,Active,,,https://www.redfin.com/CA/Coto-de-Caza/23435-Via-Alondra-92679/home/5055703,CRMLS,PW23164873,N,Y,33.6225055,-117.5798831
MLS Listing,,Single Family Residential,11112 Martha Ann Dr,Rossmoor,CA,90720,1600000,3,2.0,51 - Rossmoor,2337,9020,1960,4,685,,Active,,,https://www.redfin.com/CA/Los-Alamitos/11112-Martha-Ann-Dr-90720/home/3379968,CRMLS,PW23172409,N,Y,33.8021894,-118.0806529
MLS Listing,,Multi-Family (2-4 Unit),17372 San Luis St,Fountain Valley,CA,92708,2339000,9,7.0,16 - Fountain Valley / Northeast HB,4345,8276,1970,4,538,,Active,,,https://www.redfin.com/CA/Fountain-Valley/17372-San-Luis-St-92708/home/3863053,CRMLS,OC23169271,N,Y,33.7109232,-117.9503946
MLS Listing,,Condo/Co-op,15 Via Castilla Unit P,Laguna Woods,CA,92637,299000,2,2.0,LW - Laguna Woods,1040,1040,1964,4,288,644,Active,September-24-2023 01:00 PM,September-24-2023 04:00 PM,https://www.redfin.com/CA/Laguna-Woods/15-Via-Castilla-92637/unit-P/home/58387654,CRMLS,OC23172681,N,Y,33.610021,-117.7168737
MLS Listing,,Single Family Residential,576 Escenico,Lake Forest,CA,92630,1390000,4,2.5,LN - Lake Forest North,2240,2731,2017,4,621,232,Active,,,https://www.redfin.com/CA/Lake-Forest/576-Escenico-92630/home/143909925,CRMLS,OC23168356,N,Y,33.6691438,-117.6904855
MLS Listing,,Vacant Land,0 Hilltop,Modjeska Canyon,CA,92676,70000,,,MO - Modjeska Canyon,,29931,,4,,,Active,,,https://www.redfin.com/CA/Silverado/Hill-Top-Dr-92676/home/101647568,CRMLS,OC23166489,N,Y,33.707754,-117.624369
MLS Listing,,Single Family Residential,2531 N La Colina Ct,Orange,CA,92867,2000000,5,5.5,"75 - Orange, Orange Park Acres E of 55",4425,11316,2020,4,452,404,Active,,,https://www.redfin.com/CA/Orange/2531-N-La-Colina-Ct-92867/home/167270689,CRMLS,OC23159059,N,Y,33.8309096,-117.8245789
MLS Listing,,Multi-Family (5+ Unit),520 E Walnut St,Santa Ana,CA,92701,6000000,32,24.0,699 - Not Defined,15552,20908,1983,4,386,,Active,,,https://www.redfin.com/CA/Santa-Ana/520-E-Walnut-St-92701/home/181430061,CRMLS,OC23172722,N,Y,33.7442202,-117.8611392
MLS Listing,,Single Family Residential,617 Diamond St,Santa Ana,CA,92703,899900,5,2.0,69 - Santa Ana South of First,1342,6370,1963,4,671,,Active,,,https://www.redfin.com/CA/Santa-Ana/617-Diamond-St-92703/home/3072039,CRMLS,PW23172732,N,Y,33.7389784,-117.8992149
MLS Listing,,Single Family Residential,6233 E Cedarbrooks Rd,Orange,CA,92867,2200000,5,4.5,"72 - Orange & Garden Grove, E of Harbor, N of 22 F",4115,14031,1997,4,535,260,Active,September-23-2023 02:00 PM,September-23-2023 05:00 PM,https://www.redfin.com/CA/Orange/6233-E-Cedarbrooks-Rd-92867/home/4340673,CRMLS,WS23172129,N,Y,33.8264795,-117.7867423
MLS Listing,,Townhouse,23385 Camden Ct #157,Yorba Linda,CA,92887,589000,2,2.5,85 - Yorba Linda,1124,1124,1985,4,524,562,Active,,,https://www.redfin.com/CA/Yorba-Linda/23385-Camden-Ct-92887/unit-157/home/5531837,CRMLS,DW23172739,N,Y,33.872622,-117.725596
MLS Listing,,Single Family Residential,9092 Orangewood Ave,Garden Grove,CA,92841,1050000,4,3.0,"64 - Garden Grove E of Euclid, W of Harbor",2401,11040,1955,4,437,,Active,,,https://www.redfin.com/CA/Garden-Grove/9092-Orangewood-Ave-92841/home/3647014,CRMLS,OC23169600,N,Y,33.7955582,-117.9739111
MLS Listing,,Single Family Residential,5521 Meinhardt Rd,Westminster,CA,92683,1250000,5,3.0,"58 - Westminster North of Rancho, S of 405",2150,6500,1963,4,581,,Active,,,https://www.redfin.com/CA/Westminster/5521-Meinhardt-Rd-92683/home/3912645,CRMLS,IG23172227,N,Y,33.768702,-118.0328461
MLS Listing,,Condo/Co-op,28667 La Azteca,Laguna Niguel,CA,92677,715000,2,2.0,LNLAK - Lake Area,862,,1990,4,829,438,Active,,,https://www.redfin.com/CA/Laguna-Niguel/28667-La-Azteca-92677/home/5392217,CRMLS,OC23172254,N,Y,33.5467324,-117.7021004
MLS Listing,,Multi-Family (5+ Unit),510 Mortimer St,Santa Ana,CA,92701,15950000,61,67.0,699 - Not Defined,34609,21780,1984,4,461,,Active,,,https://www.redfin.com/CA/Santa-Ana/510-Mortimer-St-92701/home/4466052,CRMLS,OC23172673,N,Y,33.7493488,-117.8638441
MLS Listing,,Single Family Residential,26761 Via Grande,Mission Viejo,CA,92691,1399900,5,3.0,MS - Mission Viejo South,2897,7200,1969,4,483,25,Active,,,https://www.redfin.com/CA/Mission-Viejo/26761-Via-Grande-92691/home/5016483,CRMLS,DW23172697,N,Y,33.5738385,-117.6662008
MLS Listing,,Townhouse,10760 Chestnut St,Los Alamitos,CA,90720,799000,2,2.5,52 - Los Alamitos,1367,,1992,4,584,320,Active,,,https://www.redfin.com/CA/Los-Alamitos/10760-Chestnut-St-90720/home/5718915,CRMLS,PW23171224,N,Y,33.8061338,-118.072805
MLS Listing,,Single Family Residential,122 Sugar Brush #84,Irvine,CA,92618,2307894,4,4.0,PS - Portola Springs,2753,3685,2023,4,838,295,Active,,,https://www.redfin.com/CA/Irvine/122-Sugar-Brush-92618/unit-84/home/187481304,CRMLS,NP23172535,N,Y,33.687745,-117.698021
MLS Listing,,Single Family Residential,8105 E Bailey Way,Anaheim Hills,CA,92808,2600000,4,3.5,77 - Anaheim Hills,3756,10800,1991,4,692,280,Active,,,https://www.redfin.com/CA/Anaheim/8105-E-Bailey-Way-92808/home/4294612,CRMLS,OC23172000,N,Y,33.8502102,-117.7354589
MLS Listing,,Single Family Residential,6808 E Georgetown Cir,Anaheim,CA,92807,1700000,3,3.0,Anaheim Hills,2754,15300,1978,4,617,184,Active,,,https://www.redfin.com/CA/Anaheim/6808-E-Georgetown-Cir-92807/home/4336234,TheMLS,23-311475,N,Y,33.8331866,-117.7512312
MLS Listing,,Single Family Residential,113 Cordial,Irvine,CA,92620,2390000,4,4.5,EASTW - Eastwood,2922,3700,2018,4,818,125,Active,,,https://www.redfin.com/CA/Irvine/113-Cordial-92620/home/167385381,CRMLS,OC23171109,N,Y,33.7181194,-117.7414835
MLS Listing,,Single Family Residential,105 Thimbleberry #76,Irvine,CA,92618,2338206,4,4.0,PS - Portola Springs,2536,4338,2023,4,922,295,Active,,,https://www.redfin.com/CA/Irvine/105-Thimbleberry-92618/unit-76/home/187479132,CRMLS,NP23172525,N,Y,33.687745,-117.698021
MLS Listing,,Single Family Residential,120 Rigsby St,La Habra,CA,90631,725000,4,2.0,87 - La Habra,1280,7800,1955,4,566,,Active,,,https://www.redfin.com/CA/La-Habra/120-Rigsby-St-90631/home/3108628,CRMLS,PW23172463,N,Y,33.9324837,-117.9744493
MLS Listing,,Single Family Residential,10498 Santa Clara St,Cypress,CA,90630,899900,3,2.0,80 - Cypress North of Katella,1536,6060,1964,4,586,,Active,,,https://www.redfin.com/CA/Cypress/10498-Santa-Clara-St-90630/home/3971892,CRMLS,PW23164568,N,Y,33.8105602,-118.0579228
MLS Listing,,Townhouse,4035 Larwin Ave,Cypress,CA,90630,840000,3,2.5,80 - Cypress North of Katella,1587,1850,1969,4,529,280,Active,,,https://www.redfin.com/CA/Cypress/4035-Larwin-Ave-90630/home/3972490,CRMLS,PW23165688,N,Y,33.8166638,-118.0619711
MLS Listing,,Single Family Residential,120 S Carousel St,Anaheim,CA,92806,999900,4,3.0,78 - Anaheim East of Harbor,2363,5580,1970,4,423,,Active,,,https://www.redfin.com/CA/Anaheim/120-S-Carousel-St-92806/home/4049627,CRMLS,PW23171459,N,Y,33.8404645,-117.8736784
MLS Listing,,Single Family Residential,23795 Avenida Columbia,Mission Viejo,CA,92691,1349000,4,2.0,MC - Mission Viejo Central,1836,8806,1971,4,735,26,Active,,,https://www.redfin.com/CA/Mission-Viejo/23795-Avenida-Columbia-92691/home/5079434,CRMLS,OC23167528,N,Y,33.6173942,-117.6619791
MLS Listing,,Single Family Residential,13522 Carroll Way,Tustin,CA,92780,1200000,4,3.0,71 - Tustin,2812,7272,1969,4,427,,Active,,,https://www.redfin.com/CA/Tustin/13522-Carroll-Way-92780/home/4440082,CRMLS,OC23172115,N,Y,33.7667437,-117.8294249
MLS Listing,,Condo/Co-op,24384 SAGE Ct #242,Laguna Hills,CA,92653,499990,2,2.0,S2 - Laguna Hills,1026,,1986,4,487,420,Active,,,https://www.redfin.com/CA/Laguna-Hills/24384-Sage-Ct-92653/unit-242/home/5606286,CRMLS,OC23171058,N,Y,33.5832718,-117.7044763
MLS Listing,,Single Family Residential,43 Northern Pne,Aliso Viejo,CA,92656,1499900,4,2.5,AV - Aliso Viejo,2680,3900,1996,4,560,68,Active,,,https://www.redfin.com/CA/Aliso-Viejo/43-Northern-Pine-Loop-92656/home/4869299,CRMLS,OC23171413,N,Y,33.5770934,-117.739651
MLS Listing,,Single Family Residential,111 Thimbleberry #79,Irvine,CA,92618,2544348,4,4.0,PS - Portola Springs,2753,7435,2023,4,924,295,Active,,,https://www.redfin.com/CA/Irvine/111-Thimbleberry-92618/unit-79/home/187478079,CRMLS,NP23172495,N,Y,33.687745,-117.698021
MLS Listing,,Single Family Residential,8212 Munster Dr,Huntington Beach,CA,92646,1275000,4,2.0,14 - South Huntington Beach,1313,7000,1962,4,971,,Active,,,https://www.redfin.com/CA/Huntington-Beach/8212-Munster-Dr-92646/home/3787257,CRMLS,OC23171733,N,Y,33.6662418,-117.9844573
MLS Listing,,Single Family Residential,8976 El Presidente Ave,Fountain Valley,CA,92708,985000,4,2.0,16 - Fountain Valley / Northeast HB,1606,7200,1964,4,613,,Active,September-23-2023 11:00 AM,September-23-2023 03:00 PM,https://www.redfin.com/CA/Fountain-Valley/8976-El-Presidente-Ave-92708/home/3861052,CRMLS,OC23172358,N,Y,33.7050953,-117.972241
MLS Listing,,Multi-Family (5+ Unit),215 E 15th St,Santa Ana,CA,92701,22950000,,108.0,699 - Not Defined,50400,28749,1984,4,455,,Active,,,https://www.redfin.com/CA/Santa-Ana/215-E-15th-St-92701/home/4464297,CRMLS,OC23172395,N,Y,33.7579763,-117.8655833
MLS Listing,,Single Family Residential,915 N Garden St,Anaheim,CA,92801,775000,4,2.0,79 - Anaheim West of Harbor,1696,6406,1954,4,457,,Active,,,https://www.redfin.com/CA/Anaheim/915-N-Garden-St-92801/home/3333907,CRMLS,PW23170485,N,Y,33.8444704,-117.9537775
MLS Listing,,Single Family Residential,11252 Laurianne Ln,Garden Grove,CA,92841,999000,3,2.5,"62 - Garden Grove N of Chapman, W of Euclid",1848,10508,1955,4,541,,Active,,,https://www.redfin.com/CA/Garden-Grove/11252-Laurianne-Ln-92841/home/3643265,CRMLS,PW23171696,N,Y,33.799217,-117.9711713
MLS Listing,,Single Family Residential,8855 E Fallsview Rd,Anaheim Hills,CA,92808,1249999,4,3.0,77 - Anaheim Hills,2330,4700,1996,4,536,110,Active,,,https://www.redfin.com/CA/Anaheim/8855-E-Fallsview-Rd-92808/home/4773409,CRMLS,PW23162557,N,Y,33.8577177,-117.7214665
MLS Listing,,Single Family Residential,2106 Carol Dr,Fullerton,CA,92833,800000,3,2.0,83 - Fullerton,1196,6240,1955,4,669,,Active,,,https://www.redfin.com/CA/Fullerton/2106-Carol-Dr-92833/home/3163414,CRMLS,PW23171452,N,Y,33.8685948,-117.9667645
MLS Listing,,Single Family Residential,17852 Lerene Dr,Yorba Linda,CA,92886,1599999,3,2.0,85 - Yorba Linda,2014,13613,1975,4,794,,Active,,,https://www.redfin.com/CA/Yorba-Linda/17852-Lerene-Dr-92886/home/4170088,CRMLS,PW23164219,N,Y,33.8909982,-117.8222819
MLS Listing,,Single Family Residential,481 Dartmoor St,Laguna Beach,CA,92651,2500000,4,4.0,NL - North Laguna,3283,12320,1965,4,761,,Active,,,https://www.redfin.com/CA/Laguna-Beach/481-Dartmoor-St-92651/home/3260304,CRMLS,LG23172386,N,Y,33.5503666,-117.7972767
MLS Listing,,Multi-Family (2-4 Unit),18642 Demion Ln,Huntington Beach,CA,92646,2195000,9,7.0,14 - South Huntington Beach,4348,7275,1971,4,505,,Active,,,https://www.redfin.com/CA/Huntington-Beach/18642-Demion-Ln-92646/home/3832543,CRMLS,NP23171785,N,Y,33.6918501,-117.9858072
MLS Listing,,Single Family Residential,1241 La Colina Dr,Tustin,CA,92780,1295000,5,2.0,NTS - North Tustin,2176,9950,1959,4,595,,Active,,,https://www.redfin.com/CA/Tustin/1241-La-Colina-Dr-92780/home/3491144,CRMLS,PW23163065,N,Y,33.7527413,-117.8018108
MLS Listing,,Mobile/Manufactured Home,5200 Irvine Blvd #31,Irvine,CA,92660,529000,2,2.0,NW - Northwood,1560,217800000,1980,4,339,257,Active,,,https://www.redfin.com/CA/Irvine/5200-Irvine-Blvd-92620/unit-31/home/5976877,CRMLS,OC23169439,N,Y,33.7080452,-117.754305
MLS Listing,,Condo/Co-op,319 Lodestar,Tustin,CA,92782,995000,3,2.5,71 - Tustin,1743,1500,2019,4,571,315,Active,,,https://www.redfin.com/CA/Tustin/319-Lodestar-92782/home/187473359,CRMLS,OC23171591,N,Y,33.7042189,-117.8190992
MLS Listing,,Townhouse,133 Cecil Pl Unit B,Costa Mesa,CA,92627,949000,3,2.5,C5 - East Costa Mesa,1550,1550,1989,4,612,256,Active,,,https://www.redfin.com/CA/Costa-Mesa/133-Cecil-Pl-92627/unit-B/home/5442688,CRMLS,PW23170662,N,Y,33.6521587,-117.9059065
MLS Listing,,Condo/Co-op,111 Copeland,Irvine,CA,92618,1550000,4,3.5,CV - Cypress Village,1900,1750,2018,4,816,250,Active,,,https://www.redfin.com/CA/Irvine/111-Copeland-92618/home/169484458,CRMLS,OC23172295,N,Y,33.6773948,-117.7475687
MLS Listing,,Condo/Co-op,25885 Trabuco Rd #124,Lake Forest,CA,92630,579900,2,1.5,LN - Lake Forest North,1190,1001,1979,4,487,520,Active,,,https://www.redfin.com/CA/Lake-Forest/25885-Trabuco-Rd-92630/unit-124/home/5755022,CRMLS,OC23156665,N,Y,33.6363489,-117.6779973
MLS Listing,,Single Family Residential,1029 Seaside Ct,Brea,CA,92821,899000,3,2.5,86 - Brea,1625,2450,2013,4,553,170,Active,,,https://www.redfin.com/CA/Brea/1029-Seaside-Ct-92821/home/58553181,CRMLS,PW23172231,N,Y,33.9340593,-117.9014425
MLS Listing,,Townhouse,7 Silverwind,Aliso Viejo,CA,92656,765000,2,2.5,AV - Aliso Viejo,1291,,1991,4,593,349,Active,,,https://www.redfin.com/CA/Aliso-Viejo/7-Silverwind-92656/home/5687980,CRMLS,OC23168815,N,Y,33.583113,-117.720557
MLS Listing,,Single Family Residential,137 Calle De Los Ninos,Rancho Santa Margarita,CA,92688,825000,3,2.5,R2 - Rancho Santa Margarita Central,1150,1800,1998,4,717,169,Active,,,https://www.redfin.com/CA/Rancho-Santa-Margarita/137-Calle-de-los-Ninos-92688/home/5226794,CRMLS,OC23168375,N,Y,33.6366119,-117.5942249
MLS Listing,,Single Family Residential,720 Hacienda Dr,La Habra,CA,90631,1100000,3,2.0,87 - La Habra,2017,9450,1955,4,545,,Active,,,https://www.redfin.com/CA/La-Habra/720-Hacienda-Dr-90631/home/3103105,CRMLS,PW23171029,N,Y,33.937847,-117.9648779
MLS Listing,,Multi-Family (5+ Unit),600 Hamilton St,Costa Mesa,CA,92627,4700000,17,15.0,699 - Not Defined,7430,20012,1978,4,633,,Active,,,https://www.redfin.com/CA/Costa-Mesa/600-Hamilton-St-92627/home/4561706,CRMLS,OC23171405,N,Y,33.6513268,-117.9234997
MLS Listing,,Single Family Residential,2407 Florida St,Huntington Beach,CA,92648,1199000,3,2.0,15 - West Huntington Beach,1064,7405,1960,4,1127,,Active,,,https://www.redfin.com/CA/Huntington-Beach/2407-Florida-St-92648/home/3150107,CRMLS,OC23171409,N,Y,33.6787743,-117.9911475
MLS Listing,,Single Family Residential,2001 W West Wind,Santa Ana,CA,92704,699900,3,2.0,69 - Santa Ana South of First,1379,3078,1975,4,508,400,Active,,,https://www.redfin.com/CA/Santa-Ana/2001-W-West-Wind-92704/home/4537751,CRMLS,OC23165225,N,Y,33.6994846,-117.8952189
MLS Listing,,Multi-Family (2-4 Unit),496 Cypress Dr,Laguna Beach,CA,92651,3595000,4,4.0,NL - North Laguna,1873,3920,1978,4,1919,,Active,,,https://www.redfin.com/CA/Laguna-Beach/496-Cypress-Dr-92651/home/4750024,CRMLS,PW23172178,N,Y,33.5461626,-117.7915157
MLS Listing,,Single Family Residential,5462 Stardust,Huntington Beach,CA,92647,1099000,4,2.0,17 - Northwest Huntington Beach,1350,6732,1963,4,814,,Active,,,https://www.redfin.com/CA/Huntington-Beach/5462-Stardust-Dr-92647/home/3887486,CRMLS,OC23169770,N,Y,33.7543251,-118.0335181
MLS Listing,,Condo/Co-op,1801 E Katella Ave #1132,Anaheim,CA,92805,490000,1,1.0,78 - Anaheim East of Harbor,651,,2007,4,753,314,Active,,,https://www.redfin.com/CA/Anaheim/1801-E-Katella-Ave-92805/unit-1132/home/12252321,CRMLS,OC23169430,N,Y,33.8040387,-117.88993
MLS Listing,,Townhouse,1061 Tustin Pines Way,Tustin,CA,92780,789000,3,2.5,NTS - North Tustin,1410,1746,1975,4,560,309,Active,,,https://www.redfin.com/CA/Tustin/1061-Tustin-Pines-Way-92780/home/4757277,CRMLS,PW23166194,N,Y,33.7527408,-117.8061744
MLS Listing,,Single Family Residential,19496 Highridge Way,Lake Forest,CA,92679,1100000,3,2.5,PH - Portola Hills,2080,3000,1993,4,529,161,Active,,,https://www.redfin.com/CA/Trabuco-Canyon/19496-Highridge-Way-92679/home/4807208,CRMLS,NP23164294,N,Y,33.6789047,-117.6289788
MLS Listing,,Single Family Residential,2932 W Academy Ave,Anaheim,CA,92804,849000,3,2.0,79 - Anaheim West of Harbor,1246,7200,1956,4,681,,Active,,,https://www.redfin.com/CA/Anaheim/2932-W-Academy-Ave-92804/home/3577829,CRMLS,OC23169435,N,Y,33.8278126,-117.9902721
MLS Listing,,Condo/Co-op,85 Kestrel,Irvine,CA,92618,1200000,3,2.5,PS - Portola Springs,1584,2500,2015,4,758,302,Active,,,https://www.redfin.com/CA/Irvine/85-Kestrel-92618/home/143914989,CRMLS,OC23172086,N,Y,33.7015898,-117.7296975
MLS Listing,,Single Family Residential,18887 Arbutus St,Fountain Valley,CA,92708,1199900,3,2.0,16 - Fountain Valley / Northeast HB,1440,7280,1969,4,833,,Active,,,https://www.redfin.com/CA/Fountain-Valley/18887-Arbutus-St-92708/home/3826822,CRMLS,PW23171831,N,Y,33.688469,-117.9602893
MLS Listing,,Single Family Residential,1281 Stonehedge Ln,La Habra,CA,90631,649900,2,2.0,87 - La Habra,1190,3120,1979,4,546,410,Active,,,https://www.redfin.com/CA/La-Habra/1281-Stonehedge-Ln-90631/home/4107275,CRMLS,PW23172153,N,Y,33.9152019,-117.9450599
MLS Listing,,Condo/Co-op,1542 S Urbana St,Anaheim,CA,92805,899900,3,2.0,699 - Not Defined,1550,,2022,4,581,433,Active,,,https://www.redfin.com/CA/Anaheim/1542-S-Urbana-St-92805/home/182630276,CRMLS,OC23162888,N,Y,33.8101621,-117.9067281
MLS Listing,,Single Family Residential,13271 Blue Spruce Ave,Garden Grove,CA,92840,1199000,3,2.5,"72 - Orange & Garden Grove, E of Harbor, N of 22 F",2074,6500,1959,4,578,,Active,,,https://www.redfin.com/CA/Garden-Grove/13271-Blue-Spruce-Ave-92840/home/3950962,CRMLS,OC23159139,N,Y,33.7786601,-117.9012168
MLS Listing,,Condo/Co-op,19136 Parkland St,Yorba Linda,CA,92886,549999,2,2.0,85 - Yorba Linda,921,,1982,4,597,441,Active,,,https://www.redfin.com/CA/Yorba-Linda/19136-Parkland-St-92886/home/5365451,CRMLS,DW23170215,N,Y,33.8735008,-117.7999791
MLS Listing,,Single Family Residential,25062 Ericson Way,Laguna Hills,CA,92653,1150000,3,2.5,S2 - Laguna Hills,1642,7540,1970,4,700,,Active,,,https://www.redfin.com/CA/Laguna-Hills/25062-Ericson-Way-92653/home/4844379,CRMLS,PW23170165,N,Y,33.5985621,-117.6876394
MLS Listing,,Single Family Residential,1921 Yacht Truant,Newport Beach,CA,92660,2998000,3,2.5,NV - East Bluff - Harbor View,2189,12000,1977,4,1370,475,Active,,,https://www.redfin.com/CA/Newport-Beach/1921-Yacht-Truant-92660/home/4724136,CRMLS,NP23171078,N,Y,33.6143296,-117.8552506
MLS Listing,,Single Family Residential,2104 Santiago St,Santa Ana,CA,92706,995000,2,1.0,70 - Santa Ana North of First,965,8937,1915,4,1031,,Active,,,https://www.redfin.com/CA/Santa-Ana/2104-Santiago-St-92706/home/3054602,CRMLS,SW23159517,N,Y,33.7642047,-117.8604243
MLS Listing,,Single Family Residential,22262 Terni,Laguna Hills,CA,92653,997000,4,2.0,S2 - Laguna Hills,2024,5000,1971,4,493,,Active,,,https://www.redfin.com/CA/Laguna-Hills/22262-Terni-92653/home/4830713,CRMLS,OC23164540,N,Y,33.6189624,-117.7414835
MLS Listing,,Single Family Residential,8012 San Leandro Cir,Buena Park,CA,90620,950000,4,2.0,699 - Not Defined,1366,6370,1956,4,695,,Active,,,https://www.redfin.com/CA/Buena-Park/8012-San-Leandro-Cir-90620/home/3294193,CRMLS,PW23169753,N,Y,33.8459702,-118.0271945
MLS Listing,,Single Family Residential,8412 Millbridge Cir,Huntington Beach,CA,92646,1700000,4,4.0,14 - South Huntington Beach,2326,6180,1972,4,731,,Active,,,https://www.redfin.com/CA/Huntington-Beach/8412-Millbridge-Cir-92646/home/3791695,CRMLS,PW23172117,N,Y,33.6700811,-117.9811175
MLS Listing,,Single Family Residential,4751 Windsong Ave,La Palma,CA,90623,1288000,5,3.0,81 - La Palma,2347,4840,1965,4,549,,Active,,,https://www.redfin.com/CA/La-Palma/4751-Windsong-Ave-90623/home/4017835,CRMLS,OC23158659,N,Y,33.8442647,-118.0499458
MLS Listing,,Single Family Residential,10 Plumbago,Irvine,CA,92620,2689000,5,5.0,NW - Northwood,3700,6536,2000,4,727,200,Active,,,https://www.redfin.com/CA/Irvine/10-Plumbago-92620/home/5769925,CRMLS,OC23169734,N,Y,33.7222456,-117.7450509
MLS Listing,,Single Family Residential,14 Calle Francesca,Rancho Santa Margarita,CA,92688,999900,3,2.5,R1 - Rancho Santa Margarita North,1758,4500,1986,4,569,587,Active,,,https://www.redfin.com/CA/Rancho-Santa-Margarita/14-Calle-Francesca-92688/home/5335236,CRMLS,OC23164582,N,Y,33.6527054,-117.5826497
MLS Listing,,Condo/Co-op,1514 S Urbana St,Anaheim,CA,92805,990000,3,2.0,699 - Not Defined,1550,,2022,4,639,433,Active,,,https://www.redfin.com/CA/Anaheim/1514-S-Urbana-St-92805/home/182629892,CRMLS,OC23162889,N,Y,33.8101621,-117.9067281
MLS Listing,,Condo/Co-op,122-A Via Estrada,Laguna Woods,CA,92637,369800,2,2.0,LW - Laguna Woods,953,,1965,4,388,785,Active,,,https://www.redfin.com/CA/Laguna-Woods/122-Via-Estrada-92637/home/187453179,CRMLS,OC23141595,N,Y,33.6057112,-117.7097775
MLS Listing,,Single Family Residential,108 Headwaters,Irvine,CA,92602,5980000,5,5.5,OH - Orchard Hills,5696,9936,2019,4,1050,289,Active,,,https://www.redfin.com/CA/Irvine/108-Headwaters-92602/home/143911349,CRMLS,OC23162110,N,Y,33.7583625,-117.7559281
MLS Listing,,Single Family Residential,2122 N Wright St,Santa Ana,CA,92705,999000,3,2.0,699 - Not Defined,1536,6678,1955,4,650,,Active,September-23-2023 01:00 PM,September-23-2023 04:00 PM,https://www.redfin.com/CA/Santa-Ana/2122-N-Wright-St-92705/home/4453886,CRMLS,CV23172131,N,Y,33.7645694,-117.8475584
MLS Listing,,Condo/Co-op,1371 Pelham Rd Unit 66A,Seal Beach,CA,90740,349900,2,1.0,1A - Seal Beach,850,1100,1963,5,412,448,Active,,,https://www.redfin.com/CA/Seal-Beach/1371-Pelham-Rd-90740/unit-66A/home/187464692,CRMLS,OC23172100,N,Y,33.7672581,-118.0876231
MLS Listing,,Single Family Residential,309 W Avenida Gaviota,San Clemente,CA,92672,6250000,5,4.0,SW - San Clemente Southwest,3500,7841,1961,5,1786,,Active,September-20-2023 10:00 AM,September-20-2023 01:00 PM,https://www.redfin.com/CA/San-Clemente/309-W-Avenida-Gaviota-92672/home/5009827,CRMLS,OC23165207,N,Y,33.4151316,-117.6121154
MLS Listing,,Single Family Residential,2571 Sidon Ave,La Habra,CA,90631,850000,3,2.0,87 - La Habra,1160,5652,1955,5,733,,Active,,,https://www.redfin.com/CA/La-Habra/2571-Sidon-Ave-90631/home/3107225,CRMLS,PW23169860,N,Y,33.9255779,-117.9755354
MLS Listing,,Single Family Residential,18410 Gifford St,Fountain Valley,CA,92708,1345000,4,2.0,16 - Fountain Valley / Northeast HB,1642,7200,1971,5,819,,Active,,,https://www.redfin.com/CA/Fountain-Valley/18410-Gifford-St-92708/home/3824581,CRMLS,PW23172110,N,Y,33.6954816,-117.9653317
MLS Listing,,Single Family Residential,18611 Amalia Ln,Huntington Beach,CA,92648,2189000,5,4.5,15 - West Huntington Beach,3453,5084,2000,5,634,295,Active,,,https://www.redfin.com/CA/Huntington-Beach/18611-Amalia-Ln-92648/home/3551169,CRMLS,OC23171279,N,Y,33.6923244,-117.9996815
MLS Listing,,Single Family Residential,6962 Cumberland Dr,Huntington Beach,CA,92647,1375000,5,3.0,17 - Northwest Huntington Beach,2388,6370,1962,5,576,,Active,,,https://www.redfin.com/CA/Huntington-Beach/6962-Cumberland-Dr-92647/home/3747639,CRMLS,PW23172108,N,Y,33.7406237,-118.0074242
MLS Listing,,Single Family Residential,924 Van Ness Ct,Costa Mesa,CA,92626,799900,2,2.5,C3 - South Coast Metro,1274,1800,1979,5,628,532,Active,,,https://www.redfin.com/CA/Costa-Mesa/924-Van-Ness-Ct-92626/home/4548782,CRMLS,OC23161095,N,Y,33.6808401,-117.8984886
MLS Listing,,Condo/Co-op,1512 Nolita,Irvine,CA,92612,758800,1,1.5,AA - Airport Area,948,,2018,5,800,485,Active,,,https://www.redfin.com/CA/Irvine/1512-Nolita-92612/home/169482191,CRMLS,OC23170366,N,Y,33.6770217,-117.8476305
MLS Listing,,Single Family Residential,8441 Friesland Dr,Huntington Beach,CA,92647,1045000,3,2.0,699 - Not Defined,1146,6015,1963,5,912,,Active,,,https://www.redfin.com/CA/Huntington-Beach/8441-Friesland-Dr-92647/home/3859125,CRMLS,PW23172093,N,Y,33.7119601,-117.9811632
MLS Listing,,Condo/Co-op,150 S Olive St,Anaheim,CA,92805,699900,2,2.5,78 - Anaheim East of Harbor,1342,2500,1999,5,522,330,Active,,,https://www.redfin.com/CA/Anaheim/150-S-Olive-St-92805/home/5789620,CRMLS,PW23171982,N,Y,33.8352811,-117.9096068
MLS Listing,,Single Family Residential,4 Midnight Ct,Aliso Viejo,CA,92656,1399000,5,2.5,AV - Aliso Viejo,2226,3293,1999,5,628,117,Active,,,https://www.redfin.com/CA/Aliso-Viejo/4-Midnight-Ct-92656/home/4869903,CRMLS,OC23171699,N,Y,33.5698301,-117.7383223
MLS Listing,,Mobile/Manufactured Home,1000 S Midway #141,Anaheim,CA,92805,98800,2,1.0,78 - Anaheim East of Harbor,500,,1958,5,198,,Active,,,https://www.redfin.com/CA/Anaheim/1000-W-Midway-Dr-92805/home/187464258,CRMLS,TR23172065,N,Y,33.828458,-117.901366
MLS Listing,,Single Family Residential,3 Wandering Rill,Irvine,CA,92603,3180000,5,4.0,TR - Turtle Rock,2770,6336,1976,5,1148,105,Active,,,https://www.redfin.com/CA/Irvine/3-Wandering-Rill-92603/home/4742709,CRMLS,OC23170382,N,Y,33.6467451,-117.813043
MLS Listing,,Single Family Residential,5336 E Big Sky Ln,Anaheim Hills,CA,92807,1195000,4,2.5,77 - Anaheim Hills,2039,14625,1984,5,586,298,Active,,,https://www.redfin.com/CA/Anaheim/5336-E-Big-Sky-Ln-92807/home/4332786,CRMLS,NP23172049,N,Y,33.8394218,-117.7988339
MLS Listing,,Single Family Residential,1305 S Wood St,Santa Ana,CA,92704,768000,3,2.0,699 - Not Defined,1071,8640,1959,5,717,,Active,,,https://www.redfin.com/CA/Santa-Ana/1305-S-Wood-St-92704/home/3537403,CRMLS,WS23172014,N,Y,33.730729,-117.8961729
MLS Listing,,Single Family Residential,5 Seafaring Dr,Corona Del Mar,CA,92625,2895000,3,2.0,CS - Corona Del Mar - Spyglass,2241,6824,1978,5,1292,876,Active,September-23-2023 12:00 PM,September-23-2023 03:00 PM,https://www.redfin.com/CA/Corona-del-Mar/5-Seafaring-Dr-92625/home/4720674,CRMLS,NP23167360,N,Y,33.606713,-117.866532
MLS Listing,,Condo/Co-op,22835 Leo Ln #45,Lake Forest,CA,92630,770000,4,2.5,LS - Lake Forest South,1301,1500,1973,5,592,360,Active,,,https://www.redfin.com/CA/Lake-Forest/22835-Leo-Ln-92630/unit-45/home/5373692,CRMLS,AR23169802,N,Y,33.6314162,-117.6864068
MLS Listing,,Condo/Co-op,1801 E Katella Ave #1080,Anaheim,CA,92805,515000,1,1.0,78 - Anaheim East of Harbor,728,,2006,5,707,324,Active,,,https://www.redfin.com/CA/Anaheim/1801-E-Katella-Ave-92805/unit-1080/home/12252407,CRMLS,PW23171394,N,Y,33.8040387,-117.88993
MLS Listing,,Single Family Residential,2533 W Chanticleer Rd,Anaheim,CA,92804,898888,3,2.0,79 - Anaheim West of Harbor,1342,7440,1956,5,670,,Active,,,https://www.redfin.com/CA/Anaheim/2533-W-Chanticleer-Rd-92804/home/3594678,CRMLS,PW23152609,N,Y,33.8129896,-117.9743344
MLS Listing,,Mobile/Manufactured Home,168 Mira Velero,San Clemente,CA,92673,699000,2,2.0,SN - San Clemente North,1540,4000,1976,5,454,297,Active,,,https://www.redfin.com/CA/San-Clemente/168-Mira-Velero-92673/home/5526397,CRMLS,OC23172017,N,Y,33.4616092,-117.6359897
MLS Listing,,Single Family Residential,386 Novel,Irvine,CA,92618,1575000,4,3.5,West Irvine,2742,,2019,5,574,235,Active,,,https://www.redfin.com/CA/Irvine/386-Novel-92618/home/187464029,TheMLS,23-311107,N,Y,33.6927628,-117.7351631
MLS Listing,,Single Family Residential,12021 Cherry St,Los Alamitos,CA,90720,1500000,4,3.0,52 - Los Alamitos,2244,8255,1962,5,668,,Active,,,https://www.redfin.com/CA/Los-Alamitos/12021-Cherry-St-90720/home/3625855,CRMLS,PW23171883,N,Y,33.7882886,-118.0685101
MLS Listing,,Condo/Co-op,660 S Glassell St #42,Orange,CA,92866,430000,1,1.0,699 - Not Defined,593,,1968,5,725,263,Active,,,https://www.redfin.com/CA/Orange/660-S-Glassell-St-92866/unit-42/home/5573029,CRMLS,PW23171946,N,Y,33.7776044,-117.8546554
MLS Listing,,Single Family Residential,1231 Maple Tree Ct,La Habra,CA,90631,998000,4,2.5,87 - La Habra,1959,9350,1979,5,509,,Active,,,https://www.redfin.com/CA/La-Habra/1231-Maple-Tree-Ct-90631/home/3120133,CRMLS,PW23171976,N,Y,33.9155694,-117.9612135
MLS Listing,,Single Family Residential,3 Timberland,Aliso Viejo,CA,92656,1999999,4,3.0,AV - Aliso Viejo,2400,7500,1997,5,833,146,Active,,,https://www.redfin.com/CA/Aliso-Viejo/3-Timberland-92656/home/4867163,CRMLS,OC23169522,N,Y,33.5837761,-117.7412086
MLS Listing,,Single Family Residential,20301 SW Cypress St,Newport Beach,CA,92660,3750000,5,5.0,N7 - West Bay - Santa Ana Heights,5490,19800,1995,5,683,,Active,,,https://www.redfin.com/CA/Newport-Beach/20301-SW-Cypress-St-92660/home/4639078,CRMLS,OC23149295,N,Y,33.6563224,-117.8759349
MLS Listing,,Single Family Residential,1549 Harmony Ln,Fullerton,CA,92831,1720000,4,3.5,699 - Not Defined,2806,11009,1960,5,613,,Active,,,https://www.redfin.com/CA/Fullerton/1549-Harmony-Ln-92831/home/3161894,CRMLS,TR23171942,N,Y,33.8824647,-117.8991309
MLS Listing,,Single Family Residential,24350 Via Lomas De Yorba E,Yorba Linda,CA,92887,1250000,4,2.5,85 - Yorba Linda,2421,10625,1990,5,516,,Active,,,https://www.redfin.com/CA/Yorba-Linda/24350-Via-Lomas-de-Yorba-E-92887/home/4286710,CRMLS,PW23170530,N,Y,33.88482,-117.7270515
MLS Listing,,Single Family Residential,23692 Arjay Way,Laguna Niguel,CA,92677,1150000,3,2.0,LNLAK - Lake Area,1433,9100,1995,5,803,108,Active,,,https://www.redfin.com/CA/Laguna-Niguel/23692-Arjay-Way-92677/home/4931826,CRMLS,CV23171824,N,Y,33.5414074,-117.7165181
MLS Listing,,Condo/Co-op,"13371 Danbury Lane, M6-136I",Seal Beach,CA,90740,399000,2,1.0,1A - Seal Beach,1100,1200,1962,5,363,428,Active,,,https://www.redfin.com/CA/Seal-Beach/13371-Danbury-Ln-90740/home/180704460,CRMLS,PW23171926,N,Y,33.768792,-118.0866172
MLS Listing,,Townhouse,7090 Lisa Ln #11,Westminster,CA,92683,725000,4,2.5,59 - Westminster North of 405 & Westminster,1324,,1978,5,548,377,Active,,,https://www.redfin.com/CA/Westminster/7090-Lisa-Ln-92683/unit-11/home/5496036,CRMLS,OC23169735,N,Y,33.7710197,-118.0055799
MLS Listing,,Condo/Co-op,10 Teramo Ct,Newport Coast,CA,92657,1539000,2,2.0,N26 - Newport Coast,1169,,1995,5,1317,662,Active,,,https://www.redfin.com/CA/Newport-Coast/10-Teramo-Ct-92657/home/5481081,CRMLS,OC23171836,N,Y,33.6036414,-117.8262298
MLS Listing,,Single Family Residential,1104 Sandcastle Dr,Corona Del Mar,CA,92625,4899900,4,3.0,CS - Corona Del Mar - Spyglass,3192,9350,1968,5,1535,108,Active,,,https://www.redfin.com/CA/Corona-del-Mar/1104-Sandcastle-Dr-92625/home/4714620,CRMLS,OC23171013,N,Y,33.6003923,-117.8581122
MLS Listing,,Single Family Residential,2009 N Lyon,Santa Ana,CA,92705,1175000,5,2.0,70 - Santa Ana North of First,2268,7227,1962,5,518,,Active,,,https://www.redfin.com/CA/Santa-Ana/2009-N-Lyon-St-92705/home/4453410,CRMLS,PW23171357,N,Y,33.7629081,-117.844731
MLS Listing,,Single Family Residential,13 Morning Wood Dr,Laguna Niguel,CA,92677,2795000,3,3.0,LNSMT - Summit,2712,5760,1983,5,1031,595,Active,,,https://www.redfin.com/CA/Laguna-Niguel/13-Morning-Wood-Dr-92677/home/4940209,CRMLS,OC23153686,N,Y,33.5052224,-117.7208391
MLS Listing,,Single Family Residential,1233 Outrigger Dr,Corona Del Mar,CA,92625,4995000,3,2.5,CS - Corona Del Mar - Spyglass,2190,7350,1969,5,2281,90,Active,,,https://www.redfin.com/CA/Corona-del-Mar/1233-Outrigger-Dr-92625/home/4718100,CRMLS,NP23169990,N,Y,33.6031812,-117.8579977
MLS Listing,,Mobile/Manufactured Home,262 Mayflower Dr,Newport Beach,CA,92660,575000,2,2.0,N7 - West Bay - Santa Ana Heights,1152,,1987,5,499,,Active,,,https://www.redfin.com/CA/Newport-Beach/262-Mayflower-Dr-92660/home/5140367,CRMLS,OC23171654,N,Y,33.6167054,-117.8980552
MLS Listing,,Single Family Residential,8803 Hummingbird Ave,Fountain Valley,CA,92708,1348000,3,3.0,16 - Fountain Valley / Northeast HB,1926,7200,1965,5,700,,Active,,,https://www.redfin.com/CA/Fountain-Valley/8803-Hummingbird-Ave-92708/home/3551687,CRMLS,PW23171451,N,Y,33.6927932,-117.9749864
MLS Listing,,Condo/Co-op,153 Crossover,Irvine,CA,92618,1921900,4,4.0,GP - Great Park,3170,,2019,5,606,260,Active,September-23-2023 11:00 AM,September-23-2023 03:00 PM,https://www.redfin.com/CA/Irvine/153-Crossover-92618/home/169482018,CRMLS,DW23171123,N,Y,33.6841974,-117.7281745
MLS Listing,,Single Family Residential,26411 Via Gaviota,Mission Viejo,CA,92691,920000,3,1.5,MN - Mission Viejo North,1099,6579,1972,5,837,,Active,,,https://www.redfin.com/CA/Mission-Viejo/26411-Via-Gaviota-92691/home/5081980,CRMLS,OC23165604,N,Y,33.6255962,-117.6694516
MLS Listing,,Single Family Residential,16542 Wanderer Ln,Huntington Beach,CA,92649,3399000,4,3.0,17 - Northwest Huntington Beach,2851,5000,1969,5,1192,,Active,,,https://www.redfin.com/CA/Huntington-Beach/16542-Wanderer-Ln-92649/home/3867701,CRMLS,OC23171011,N,Y,33.7224741,-118.0627692
MLS Listing,,Single Family Residential,4200 Via Norte,Cypress,CA,90630,1550000,4,3.0,80 - Cypress North of Katella,2915,5713,1968,5,532,,Active,,,https://www.redfin.com/CA/Cypress/4200-Via-Norte-90630/home/3984117,CRMLS,PW23171214,N,Y,33.823527,-118.0595423
MLS Listing,,Single Family Residential,33626 Rising Tide Ct,Dana Point,CA,92629,1300000,3,2.5,DH - Dana Hills,1819,5460,1989,5,715,270,Active,,,https://www.redfin.com/CA/Dana-Point/33626-Rising-Tide-Ct-92629/home/4988811,CRMLS,OC23171707,N,Y,33.474612,-117.6963426
MLS Listing,,Condo/Co-op,26 Lakefront #76,Irvine,CA,92604,1590000,3,2.5,WB - Woodbridge,2233,,1985,5,712,655,Active,,,https://www.redfin.com/CA/Irvine/26-Lakefront-92604/unit-76/home/5460352,CRMLS,AR23170135,N,Y,33.6783805,-117.7970411
MLS Listing,,Condo/Co-op,33449 Paseo El Lazo,San Juan Capistrano,CA,92675,1380000,4,3.0,JS - San Juan South,2098,3000,2019,5,658,447,Active,,,https://www.redfin.com/CA/San-Juan-Capistrano/33449-Paseo-El-Lazo-92675/home/169487742,CRMLS,OC23169840,N,Y,33.4771838,-117.6643704
MLS Listing,,Single Family Residential,1625 N Hale Ave,Fullerton,CA,92831,1268000,4,2.5,83 - Fullerton,2292,9695,1974,5,553,105,Active,,,https://www.redfin.com/CA/Fullerton/1625-N-Hale-Ave-92831/home/4076520,CRMLS,NP23171590,N,Y,33.8857719,-117.8949418
MLS Listing,,Condo/Co-op,268 S Auburn Heights Ln,Anaheim Hills,CA,92807,849900,3,2.5,77 - Anaheim Hills,1486,,2018,5,572,320,Active,,,https://www.redfin.com/CA/Anaheim/268-S-Auburn-Heights-Ln-92807/home/169487504,CRMLS,SR23171353,N,Y,33.8512569,-117.779019
MLS Listing,,Single Family Residential,1324 Kroeger Ave,Fullerton,CA,92831,1700000,4,3.5,83 - Fullerton,3034,13260,1961,5,560,,Active,,,https://www.redfin.com/CA/Fullerton/1324-Kroeger-Ave-92831/home/3161586,CRMLS,PW23171531,N,Y,33.8842607,-117.9095901
MLS Listing,,Mobile/Manufactured Home,1750 Lambert Rd #58,La Habra,CA,90631,299900,3,2.0,87 - La Habra,1200,,2018,5,250,,Active,,,https://www.redfin.com/CA/La-Habra/1750-W-Lambert-Rd-90631/unit-58/home/173435703,CRMLS,PW23171638,N,Y,33.9243983,-117.9653516
MLS Listing,,Multi-Family (2-4 Unit),406 E Myrtle St,Santa Ana,CA,92701,1475000,6,3.0,69 - Santa Ana South of First,2500,8000,1926,5,590,,Active,September-23-2023 11:00 AM,September-23-2023 03:00 PM,https://www.redfin.com/CA/Santa-Ana/406-E-Myrtle-St-92701/home/4497226,CRMLS,OC23164812,N,Y,33.7412428,-117.8630761
MLS Listing,,Single Family Residential,345 W Brookdale Pl,Fullerton,CA,92832,1250000,3,2.0,83 - Fullerton,1822,8450,1933,5,686,,Active,,,https://www.redfin.com/CA/Fullerton/345-W-Brookdale-Pl-92832/home/3181117,CRMLS,PW23162775,N,Y,33.876595,-117.9306897
MLS Listing,,Multi-Family (2-4 Unit),5422 Delong St,Cypress,CA,90630,1200000,5,3.0,80 - Cypress North of Katella,2232,11326,1939,5,538,,Active,,,https://www.redfin.com/CA/Cypress/5422-Delong-St-90630/home/4026417,CRMLS,PW23171499,N,Y,33.8356662,-118.0380261
MLS Listing,,Condo/Co-op,2172 Biscayne,Costa Mesa,CA,92627,499888,1,1.0,C4 - Central Costa Mesa,768,,1980,5,651,485,Active,,,https://www.redfin.com/CA/Costa-Mesa/2172-Biscayne-Spgs-92627/home/5593470,CRMLS,OC23171475,N,Y,33.6528904,-117.9165847
MLS Listing,,Single Family Residential,108 Pinnacle Dr,Lake Forest,CA,92630,1898000,5,4.5,LN - Lake Forest North,3313,4270,2018,5,573,237,Active,,,https://www.redfin.com/CA/Lake-Forest/108-Pinnacle-Dr-92630/home/143912685,CRMLS,OC23163423,N,Y,33.666872,-117.6530414
MLS Listing,,Single Family Residential,8442 Norfolk Dr,Huntington Beach,CA,92646,1595000,4,2.5,14 - South Huntington Beach,1710,6060,1972,5,933,,Active,,,https://www.redfin.com/CA/Huntington-Beach/8442-Norfolk-Dr-92646/home/3791594,CRMLS,OC23161482,N,Y,33.6693816,-117.9805227
MLS Listing,,Single Family Residential,64 Mapleton,Irvine,CA,92620,3250000,5,4.5,WD - Woodbury,4081,5509,2014,5,796,140,Active,,,https://www.redfin.com/CA/Irvine/64-Mapleton-92620/home/40101062,CRMLS,OC23171539,N,Y,33.692126,-117.7498103
